Dept	DDSP	Circonscription	Type	Adresse	Code Postal	Commune	Tel	latitude	longitude
01	DDSP	BOURG EN BRESSE	CP	4, Rue des Remparts	01000	BOURG EN BRESSE	04 74 47 20 20	46.2067848	5.2252704
01		BOURG EN BRESSE	AN	22 - 24, Rue de Montholon - SDIG	01000	BOURG EN BRESSE	04 74 32 99 60		
01		OYONNAX	CP	57, Rue Pasteur	01108	OYONNAX	04 74 77 47 33	46.254056	5.6525961
01		OYONNAX	AN	3, Rue Jean Charcot - service de police de proximité	01108	OYONNAX	04 74 81 98 67		
02	DDSP	LAON	AN	24 bis, rue Fernand Christ	02003	LAON	03 23 25 16 00	36.8062286	-82.6095963
02		LAON	CP	2, Bd Gras Brancourt	02003	LAON	03 23 27 79 79	49.5698737	3.6264579
02		LAON	AN	3, Ruelle des Cordeliers - SDIG	02003	LAON	03 23 26 81 00	36.8062286	-82.6095963
02		CHATEAU THIERRY	CP	Rue de la Mare aux Canes	02400	CHATEAU THIERRY	03 23 84 26 26	49.047852	3.388626
02		SAINT QUENTIN	CP	7, Avenue du Général de Gaulle	02100	SAINT QUENTIN	03 23 06 20 20	49.8423697	3.2964609
02		SAINT QUENTIN	AN	Zone Industrielle - Lieu dit "le Buisson à Perdrix" - Chenil	02100	NEUVILLE SAINT AMAND			
02		SAINT QUENTIN	CS	38, Rue d'Artois - Quartier Vermand	02100	SAINT QUENTIN	03 23 05 73 00	49.8568881	3.2695857
02		SOISSONS	CP	19, Rue Paul Deviolaine	02209	SOISSONS	03 23 76 72 00	49.3857551	3.3229807
02		TERGNIER LA FERE	CP	19, Rue Victor Hugo	02700	TERGNIER LA FERE	03 23 37 22 00	49.6555451	3.2927602
03	DDSP	MOULINS	CP	Îlot Notre Dame	03000	MOULINS		46.5644989	3.3256099
03		MOULINS		Concession logement	03000	MOULINS		46.572155	3.270035
03		MOULINS		Stand de tir	03000	MOULINS		46.572155	3.270035
03		MONTLUCON	CP	41, rue Joseph Chantemille	3100	MONTLUÇON	04 70 02 52 70	46.3408899	2.5958764
03		MONTLUCON	CS	Place Daniel Casanova - Quartier Bien Assis	03100	MONTLUÇON	04 70 03 31 85	39.4778214	-76.6398926
03		MONTLUCON	PCPP	Rue du Lampier	03410	DOMERAT	04 70 64 08 64	46.361088	2.533527
03		VICHY	CP	35, avenue Victoria	03200	VICHY	04 70 96 11 11	46.1277882	3.4241962
03		VICHY	AN	17, Rue Alquié - SDIG	03200	VICHY		38.1104317	-91.7606812
04	DDSP	DIGNE LES BAINS	CP	2, Rue des Monges	04000	DIGNE LES BAINS	04 92 30 86 60	44.0931171	6.2348658
04		DIGNE LES BAINS	AN	30, Avenue de Saint Véran - Entrepôt	04000	DIGNE LES BAINS	04 92 31 31 12	44.0879166	6.2146208
04		DIGNE LES BAINS	AN	13, Bd Victor Hugo - vestiaires, syndicat, salle de réunion	04000	DIGNE LES BAINS	04 92 31 50 97		
04		DIGNE LES BAINS	AN	74, Bd Gassenti - Immeuble Verdi - SDIG	04000	DIGNE LES BAINS	04 92 30 88 90	44.0945104	6.2395853
04		MANOSQUE	HP	10, Allée de Provence	04100	MANOSQUE	04 92 70 17 00	43.8307116	5.7888952
05	DDSP	GAP	CP	Place Alsace - Lorraine	05000	GAP	04 92 52 50 99	44.560275	6.080843
05		GAP	AN	Préfecture - SDIG			04 92 40 48 00		
05		BRIANCON	CP	19, avenue de la République	05100	BRIANÇON	04 92 25 54 54	44.8971317	6.6361698
06	DDSP	NICE	HP	1, Avenue du Maréchal Foch - Nice Centre	06000	NICE	04 92 17 22 22		
06		NICE	CS	45, Ave Emile Rippert - Nice Ariane	06000	NICE	04 93 54 98 67	39.1212883	-122.8386002
06		NICE	CS	Traverse Digue des Française - Nice Ouest	06000	NICE	04 97 25 98 00		
06		NICE	CS	Avenue Albert 1er - Cité Administrative	06230	VILLEFRANCHE SUR MER	04 93 76 30 80	43.70561	7.309613
06		NICE	CS	21, Rue du Maréchal Vauban	06000	NICE	04 92 17 21 64	39.1212883	-122.8386002
06		NICE	AN	28, Rue de Roquebilière - Caserne Auvare (9 bâtiments)	06000	NICE	04 92 17 22 22	43.7119442	7.288447
06		NICE	AN	37 - 39, Rue de Roquebilière	06000	NICE	04 92 17 22 22	43.711676	7.2883344
06		NICE	AN	Aéroport Nice Côte d'Azur Zone Ouest - Chenil	06000	NICE	x		
06		NICE		Concession logement	6000	NICE			
06		NICE		Concession logement	6000	NICE			
06		NICE		Concession logement	6000	NICE			
06		ANTIBES	CP	5, rue des Frères Olivier 	06600	ANTIBES	04 92 90 78 00	43.5799195	7.1199245
06		ANTIBES	Csub	Avenue Jean Moulin - "Lou San Sébastien"	06220	VALLAURIS	04 92 95 35 10	43.575836	7.047256
06		ANTIBES	CS	Chemin des Terriers - Quartier Croix Rouge	06600	ANTIBES	04 92 91 95 23	43.598235	7.078401
06		ANTIBES		Rue Henri Laugier - Zone Industrielle des Croutons - Stand de tir	6600	ANTIBES		43.606781	7.075506
06		CAGNES SUR MER	CP	20 bis, Chemin des Grands Plans	06800	CAGNES SUR MER	04 92 13 56 10	43.6559824	7.1505219
06		CAGNES SUR MER	Csub	475, Contre-Allée Georges Pompidou	06700	ST LAURENT DU VAR	04 93 31 16 87	43.670373	7.194202
06		CANNES	CP	1, Avenue de Grasse	06400	CANNES	04 93 06 22 22	43.5543309	7.0164737
06		CANNES	CS	1, Ave Michel Jourdan 	06400	CANNES LA BOCCA	04 93 47 77 68		
06		CANNES	CS	66, Bd Sadi Carnot	06110	LE CANNET	04 93 45 94 22	43.5728851	7.0162055
06		CANNES	AN	Lieu Dit Chemin rural de l'Abadie - Chenil	6400	CANNES	x		
06		GRASSE	CP	1, Ave du Maréchal de Lattre de Tassigny	06130	GRASSE	04 93 40 91 91	37.2619286	-90.1236877
06		MENTON	HP	8, Rue Partouneaux	06500	MENTON	04 93 28 66 00	43.7749	7.4974933
06		MENTON	CS	25, Bd de la République - Beausoleil	06240	BEAUSOLEIL	04 93 78 24 22	43.7428428	7.4250908
06		MENTON	CS	131, Avenue de Verdun	06190	ROQUEBRUNE CAP MARTIN	04 93 35 60 01	43.7610099	7.470907
06		MENTON	AN	2, rue des Soeurs Munet - Plaintes	06500	MENTON	04 92 10 00 84	33.3424492	-82.0564804
07	DDSP	PRIVAS	CP	3, Avenue Saint Exupéry	07000	PRIVAS	04 75 64 00 22	44.7342511	4.6018419
07		PRIVAS	AN	1, Avenue de Chômerac - SDIG	07000	PRIVAS	04 75 66 91 00	44.7344987	4.5982495
07		PRIVAS		Stand de tir	07000	PRIVAS		44.7414856	4.5784745
07		ANNONAY	CP	64, Avenue de l'Europe	07104	ANNONAY	04 75 67 00 22	45.245938	4.6679704
07		AUBENAS	CP	16, Rue Jean Jaurès	07200	AUBENAS	04 75 89 22 22	44.6200222	4.391377
07		GUILHERAND GRANGES	CP	670, Ave rue Georges Clémenceau	07500	GUILHERAND GRANGES	04 75 63 22 22	44.9323144	4.8707617
08	DDSP	CHARLEVILLE MEZIERES	HP	36, Avenue Jean-Jaurès	08000	CHARLEVILLE MEZIERES	03 24 57 94 94	49.7697517	4.7231474
08		CHARLEVILLE MEZIERES	AN	Place de l'Hôtel de Ville - OMP - SDIG - CDSF	08000	CHARLEVILLE MEZIERES			
08		CHARLEVILLE MEZIERES	AN	197, Route de Warcq - CRS 23 - Chenil	08000	CHARLEVILLE MEZIERES			
08		SEDAN	CP	41, Rue du Rivage	08200	SEDAN	03 24 27 86 00	49.7021565	4.9444646
09	DDSP	FOIX	CP	2, Avenue Lakanal	09000	FOIX	05 61 05 43 00	42.9620083	1.6038677
09		FOIX	AN	3, Avenue Lakanal (annexe DDSP)	09000	FOIX	05 61 05 43 00	42.960435	1.6047
09		FOIX	AN	2, Rue de la Préfecture (Préfecture)	09000	FOIX		42.966979	1.605978
09		FOIX		Concession logement	09000	FOIX		42.9516449	1.5686096
09		PAMIERS	CP	Boulevard Delcassé	09100	PAMIERS	05 34 01 32 60	43.114456	1.61387
10	DDSP	TROYES	HP	18, Rue des Gayettes + Chenil	10000	TROYES	03 25 43 51 00	48.2892471	4.0733177
10		TROYES	CS	5, Rue Bernard Palissy	10600	LA CHAPELLE SAINT LUC	03 25 74 36 30	48.3085102	4.03835
10		TROYES	CS	1, Rue de Darmstadt	10000	TROYES	03 25 80 98 87	48.3038069	4.095127
10		TROYES	CS	58, Ave des Lombards	10000	TROYES	03 25 49 66 95	48.271407	4.080716
11	DDSP	CARCASSONNE	CP	4, Bd Barbès	11000	CARCASSONNE	04 68 11 26 00	43.21031	2.34914
11		CARCASSONNE	AN	35, rue Voltaire - OMP, CDSF.	11000	CARCASSONNE	04 68 11 26 00		
11		CARCASSONNE	AN	22, Rue de Strasbourg - SDIG	11000	CARCASSONNE		43.214757	2.3581924
11		CASTELNAUDARY	CP	1, Quai du Port	11400	CASTELNAUDARY	04 68 94 50 50	43.3154192	1.9545813
11		NARBONNE	CP	Bd du Général de Gaulle	11100	NARBONNE	04 68 90 38 50	43.184767	3.009156
12	DDSP	RODEZ	CP	2, Rue Hervé Gardye - Centre Ville	12000	RODEZ	05 65 77 73 17	44.3453026	2.5721755
12		RODEZ	AN	Rue Maurice Bompard - Chenil	12000	RODEZ	05 65 42 44 61	44.349056	2.578805
12		RODEZ		Parking	12000	RODEZ		38.0323982	-122.2668915
12		RODEZ	PCPP	57, Bd Paul Ramadier - HLM les Maronniers	12000	RODEZ	05 65 69 29 50		
12		RODEZ	AN	8, Rue François Cabrol - SDIG	12007	RODEZ	05 34 55 48 77	38.0323982	-122.2668915
12		DECAZEVILLE	CP	6, Place Cabrol	12300	DECAZEVILLE	05 65 43 88 00	44.55901	2.2538602
12		DECAZEVILLE		Stand de tir	12300	DECAZEVILLE		44.5898705	2.2606845
12		MILLAU	CP	14, Rue de la Condamine	12100	MILLAU	05 65 61 23 00	44.100894	3.0764106
12		MILLAU		Stand de tir	12100	MILLAU		44.0980415	3.1202583
13	DDSP	MARSEILLE	HP	2, rue Antoine Becker	13002	MARSEILLE	04 91 39 80 00	43.2998791	5.3660891
13		MARSEILLE	CD	3, Rue Odette Jasse	13015	MARSEILLE	04 96 16 94 00	43.343279	5.370227
13		MARSEILLE	CD	66-68 La Canebière	13001	MARSEILLE	04 88 77 58 00	43.2975731	5.380929
13		MARSEILLE	CD	87, Bd Mireille Lauze	13010	MARSEILLE	04 91 17 79 50	43.2830141	5.4094759
13		MARSEILLE	Csub	3, Ave Jean Baptiste Fouque	13013	MARSEILLE	04 91 12 22 22	43.3194728	5.4080013
13		MARSEILLE	Csub	50, Bd Charles Kaddouz	13012	MARSEILLE	04 91 18 60 60	43.3106767	5.427765
13		MARSEILLE	Csub	24, Avenue Roger Chieusse	13016	MARSEILLE	04 91 09 12 40 	43.362521	5.3181254
13		MARSEILLE	Csub	9, Rue Raymond Cayol	13009	MARSEILLE	04 91 40 91 11	43.2483356	5.4015568
13		MARSEILLE	Csub	187, Avenue de Saint Marcel	13011	MARSEILLE	04 91 18 22 50		
13		MARSEILLE	Csub	138, Avenue des Chartreux	13004	MARSEILLE	04 91 18 54 00	43.3076361	5.3999855
13		MARSEILLE	Csub	143, Rue Félix Pyat	13003	MARSEILLE	04 95 05 16 60	43.3180402	5.3747412
13		MARSEILLE	Csub	Avenue Raimu - Centre Urbain "Le Merlan"	13014	MARSEILLE	04 91 21 53 80	43.3409233	5.3913269
13		MARSEILLE	Csub	69, Avenue de Haïfa	13008	MARSEILLE	04 91 16 80 80	43.2522825	5.391444
13		MARSEILLE	Csub	2, Avenue Georges Pompidou	13000	PLAN DE CUQUES		43.3406596	5.4666253
13		MARSEILLE	CS	6 - Promenade George Pompidou - USPL	13008	MARSEILLE		36.3510208	-119.3565445
13		MARSEILLE	CS	63, rue Jean Martin	13005	MARSEILLE	04 91 36 56 64	43.2929228	5.403365
13		MARSEILLE	CS	Square Natvick - Gare Saint-Charles	13001	MARSEILLE	04 91 14 29 97	43.30418	5.38799
13		MARSEILLE	CS	98, Rue de Rome	13006	MARSEILLE	04 96 10 62 68	43.2910305	5.3808707
13		MARSEILLE	AN	33, Avenue de Saint-Louis - CDSF	13015	MARSEILLE	04 91 03 11 22	43.3437349	5.3595217
13		MARSEILLE	CS	110, Avenue de la Corse	13007	MARSEILLE	04 91 15 71 80	43.2898121	5.3565662
13		MARSEILLE	CS	40, Bd Schuman - Annexe Hôtel de Police	13002	MARSEILLE	04 91 39 80 02	43.3152847	5.3566008
13		MARSEILLE	AN	33, Avenue de Saint-Louis - CDSF	13015	MARSEILLE	04 91 03 11 22	43.3437349	5.3595217
13		MARSEILLE	AN	Bât 12 - Site du Canet - Compagnie de Sécurisation	13015	MARSEILLE			
13		MARSEILLE	AN	28, Rue Saint Jean du Désert - Compagnie Circulation	13005	MARSEILLE	04 91 48 36 83	43.2989328	5.3784653
13		MARSEILLE	AN	6, Promenade Georges Pompidou - USPL	13008	MARSEILLE		36.3510208	-119.3565445
13		MARSEILLE	AN	Station Métro Bougainville - USTC	13015	MARSEILLE	04 91 58 50 12	43.3531342	5.3649635
13		MARSEILLE	AN	1, Place de la Préfecture - Compagnie d'Intervention	13006	MARSEILLE	04 91 39 80 00	43.291126	5.3805094
13		MARSEILLE	AN	55-57 rue de la Joliette	13002	MARSEILLE	04 9113 12 40	43.3027406	5.3708527
13		MARSEILLE	AN	Chemin de la Colle d'Argene - Cabries - Chenil	13480	CABRIES	04 42 22 55 61	43.440683	5.384012
13		MARSEILLE		Stand de tir		MILLE ALLAUCH		35.8876686	-119.4866714
13		MARSEILLE		Parking		MARSEILLE		43.2933617	5.3712902
13		MARSEILLE		Concession logement		SAUSSET LES PINS			
13		MARSEILLE		Concession logement		MARSEILLE		36.3510208	-119.3565445
13		AIX EN PROVENCE	CP	10, Avenue de l'Europe - Cedex 02	13093	AIX EN PROVENCE	04 42 93 97 00		
13		AIX EN PROVENCE	PCPP	6, Cours Brémond	13090	LES MILLES	04 42 39 24 48	43.5035828	5.3876531
13		ARLES	CP	Boulevard des Lices	13200	ARLES	04 90 18 45 00	43.675497	4.628816
13		ARLES		Stand de tir					
13		AUBAGNE	CP	9 - 11, Avenue Jeanne d'Arc	13400	AUBAGNE	04 42 18 55 58	43.2951274	5.5668416
13		AUBAGNE	CS	2, Bd de la Gare	13400	LA PENNE SUR HUVEAUNE	04 91 87 74 81	43.2819888	5.5150509
13		AUBAGNE	AN	11, Avenue Jeanne d'Arc - BSU	13400	AUBAGNE		43.2952297	5.5667911
13		ISTRES	CP	Rue Chantourné	13800	ISTRES	04 42 11 17 17	43.502529	4.991092
13		ISTRES	CS	16, avenue Marius Chalves	13140	MIRAMAS	04 90 53 78 30	43.5792138	4.9998088
13		LA CIOTAT	CP	59, Avenue Victor Giraud	13600	LA CIOTAT	04 42 18 67 30	30.9075546	-91.8198318
13		MARIGNANE	CP	Avenue du 8 Mai 1945	13700	MARIGNANE	04 42 31 90 00	43.412762	5.220348
13		MARTIGUES	CP	Rond point de l'Hôtel de Ville	13500	MARTIGUES	04 42 41 31 10	43.405737	5.047528
13		MARTIGUES	CS	32, Bd Charles Nedelec	13100	PORT DU BOUC	04 42 40 54 00	30.9882507	-82.8726273
13		PORT SAINT LOUIS DU RHONE	CP	33-35, Avenue de la République	13518	PORT SAINT LOUIS DU RHONE	04 42 86 50 21	43.3895385	4.8087704
13		SALON DE PROVENCE	CP	Avenue du Pays Catalan	13300	SALON DE PROVENCE	04 90 17 04 50	43.65514	5.097726
13		TARASCON	CP	3, Boulevard du Viaduc	13150	TARASCON	04 90 91 52 90	43.802102	4.6600089
13		TARASCON		Stand de tir	13150	TARASCON		43.8137321	4.6849241
13		VITROLLES	CP	Avenue Antoine Biancardini	13127	VITROLLES	04 42 10 88 20	43.438523	5.255481
13		VITROLLES	CS	77, Ave François Mitterand	13170	LES PENNES MIRABEAU	04 91 65 03 31	43.39935	5.340835
14	DDSP	CAEN	CP	10, Rue Thibaut de la Fresnaye	14000	CAEN	02 31 29 22 22	49.186718	-0.3786776
14		CAEN	CS	Rue des Jacobins = RI	14000	CAEN	02 31 15 63 60	49.179339	-0.360511
14		CAEN	CS	19,  Avenue Guynemer	14000	CAEN	02 31 35 43 60	49.1672787	-0.3490606
14		CAEN	CS	6, Résidence du Chardonneret - Quartier Chemin Vert	14000	CAEN	02 31 29 13 20	49.1902971	-0.3955802
14		CAEN	CS	Route de Caumont	14000	CARPIQUET	02 31 29 55 35	49.187084	-0.42635
14		CAEN	CS	Place du Petit Vertige	14200	HEROUVILLE SAINT CLAIR	02 31 96 78 78	49.204811	-0.32961
14		CAEN	CS	34,  Rue Emile Zola	14210	MONDEVILLE	02 31 25 03 20	49.173428	-0.3258462
14		CAEN	PCPP	Aéroport de Caen-Carpiquet	14000	CAEN		49.1833	-0.459
14		CAEN	AN	7, Bd André Detolle - Chenil	14000	CAEN	02 31 73 27 17	31.6441002	-92.0195999
14		DEAUVILLE	CP	8, Rue Désiré le Hoc	14800	DEAUVILLE	02 31 14 61 70	49.3598858	0.0805302
14		DIVES SUR MER	CP	13, Avenue Secretan	14160	DIVES SUR MER	02 31 28 23 00	49.2880179	-0.1005044
14		DIVES SUR MER		Parking	14160	DIVES SUR MER			
14		HONFLEUR	CP	3, Rue Villey	14600	HONFLEUR	02 31 14 44 45	49.4177806	0.2363804
14		LISIEUX	CP	41, Bd Sainte Anne	14100	LISIEUX	02 31 48 45 50	49.1426665	0.224281
15	DDSP	AURILLAC	CP	17, Rue Pasteur	15000	AURILLAC	04 71 45 51 00	44.9255271	2.4441308
16	DDSP	ANGOULEME	CP	Place du Champ de Mars	16000	ANGOULEME	05 45 39 38 37	45.649069	0.162003
16		ANGOULEME	CS	4, Place Henri Farman	16000	ANGOULEME	05 45 23 51 41	45.650076	0.12589
16		ANGOULEME	CS	Place Hildesheim	16000	ANGOULEME	05 45 65 33 75	45.631208	0.152582
16		ANGOULEME	CS	151, Route de Paris	16000	LE GOND PONTOUVRE	05 45 68 63 77	45.6720078	0.1737005
16		ANGOULEME	CS	Boulevard Léon Blum	16000	SOYAUX	05 45 95 56 44	45.647955	0.185797
16		ANGOULEME	PCPP	Place de l'Hôtel de Ville	16000	LA COURONNE	05 45 67 24 43	45.668105	0.166136
16		ANGOULEME	AN	Place du Champ de Mars (annexe DDSP)	16000	ANGOULEME	05 45 39 38 37	45.6456718	0.1451442
16		COGNAC	CP	14, Rue Richard	16100	COGNAC	05 45 36 38 50	45.6956223	-0.3244346
17	DDSP	LA ROCHELLE	CP	2, Place de Verdun	17000	LA ROCHELLE	05 46 51 36 36	46.1627704	-1.152437
17		LA ROCHELLE	CS	17, Avenue du Général Mangin - Secteur Ouest	17000	LA ROCHELLE	05 46 42 28 30	46.166872	-1.183146
17		LA ROCHELLE	CS	28, rue Gargoulleau - Centre Ville	17000	LA ROCHELLE	05 46 27 52 10	46.161965	-1.1517891
17		LA ROCHELLE	CS	Impasse du Clos Lucé		PERIGNY		46.156825	-1.098344
17		LA ROCHELLE	PCPP	28, Ave Billaud Varenne	17000	VILLENEUVE LES SALINES	05 46 44 76 75		
17		LA ROCHELLE	PCPP	Ave Jean Monnet	17000	LA ROCHELLE		46.142813	-1.153865
17		LA ROCHELLE	AN	Boulevard Emile Delmas - archives	17000	LA ROCHELLE	05 46 43 00 43	46.160577	-1.216941
17		LA ROCHELLE	AN	Rue de la Marne - Chenil	17000	LA ROCHELLE	05 46 35 13	31.7930298	-92.3902588
17		LA ROCHELLE	AN	35, Rue Léonce Vieljeux - OMP - SDIG	17000	LA ROCHELLE	05 46 41 22 97	46.1582194	-1.1567346
17		LA ROCHELLE		Stand de tir	17000	LA ROCHELLE		46.135098	-1.137286
17		LA ROCHELLE		Stand de tir	17000	LA ROCHELLE		46.135098	-1.137286
17		ROCHEFORT SUR MER	CP	42, Rue Jean Jaures	17306	ROCHEFORT SUR MER	05 46 87 69 14	45.9345058	-0.9597105
17		ROYAN	CP	13, Rue du Château d'Eau	17200	ROYAN	05 46 39 40 10	45.6238282	-1.0321624
17		ROYAN	CS	7, Bd de la République	17200	ST GEORGES DE DIDONNE	05 46 02 56 40		
17		ROYAN	PCPP	28, Ave de Verdun	17200	SAINT PALAIS		45.6462309	-1.0625154
17		SAINTES	CP	Place du Bastion	17100	SAINTES	05 46 90 30 40	45.746891	-0.636641
17		SAINTES	AN	4, Place du 11 Novembre - SDIG. 	17100	SAINTES	05 46 74 23 61		
18	DDSP	BOURGES	HP	6,  Avenue d'Orléans	18000	BOURGES	02 48 23 77 17	47.0908968	2.3841988
18		BOURGES	CS	238, Avenue du Général de Gaulle	18000	BOURGES	02 48 27 98 20	47.10121	2.373273
18		BOURGES	CS	16, Rue Hyppolite Boyer	18000	BOURGES	02 48 48 05 00	47.056997	2.4068479
18		BOURGES	AN	Le Vernillet - Chenil	18570	CHAPELLE SAINT URSIN		39.8167191	-79.3308716
18		VIERZON	CP	3, Rue Mac Nab	18100	VIERZON	02 48 52 92 40	47.2233649	2.0647417
19	DDSP	TULLE	CP	2,  Rue Anne Vialle	19000	TULLE	05 55 21 72 00	45.2637664	1.7661207
19		BRIVE LA GAILLARDE	CP	4, Boulevard Anatole France	19100	BRIVE LA GAILLARDE	05 55 17 46 00	45.1606367	1.5348825
19		USSEL	CP	4, Avenue Carnot	19200	USSEL	05 55 96 11 29	45.5465802	2.3099684
21	DDSP	DIJON	HP	2, Place Suquet	21000	DIJON	03 80 44 55 00		
21		DIJON	Csub	Rue de la Fontaine - Quartier du Mail	21300	CHENOVE	03 80 54 03 60		
21		DIJON	CS	Bd Bachelard - Fontaine d'Ouche	21000	DIJON	03 80 44 55 71	47.318405	5.001897
21		DIJON	CS	14, Bd des Martyrs de la Résistance - Quartier Grésilles	21000	DIJON	03 80 44 55 69	47.3305039	5.0647018
21		DIJON	CS	1, Rue Roland Dorgeles	21000	LONGVIC	03 80 68 04 66	47.2878009	5.0623986
21		DIJON	CS	8, rue Charles Dullin	21240	TALANT	03 80 53 33 49	47.3397744	4.9961042
21		DIJON	AN	Mont Afrique - Chenil	21160	FLAVIGNEROT	03 80 42 92 06	47.292977	4.936483
21		BEAUNE	CP	5, Avenue Charles de Gaulle	21200	BEAUNE	03 80 25 09 25	47.0178349	4.8349517
22	DDSP	SAINT BRIEUC	HP	Boulevard Waldeck Rousseau	22022	SAINT BRIEUC	02 96 77 29 00	48.509494	-2.757242
22		SAINT BRIEUC	CS	17, Rue de Rennes	22022	LANGUEUX	02 96 33 54 55	48.4938803	-2.7123007
22		SAINT BRIEUC	PCPP	30, Rue de Bel Air	22022	PLOUFRAGAN	02 96 78 60 17	48.498355	-2.7865535
22		DINAN	CP	16 bis, Place Duguesclin	22101	DINAN	02 96 87 74 00	31.2176895	-90.1927032
22		LANNION	CP	2 bis, Bd du Forlac'h	22300	LANNION	02 96 46 69 50	43.1529503	-88.1592865
22		LANNION	AN	5, Rue Auguste Pavie - OMP	22300	GUINGAMP	02 96 44 26 		
23	DDSP	GUERET	CP	Cité Administrative - B.P 123	23000	GUERET	05 55 41 27 00		
23		GUERET	AN	17, Place Bonnyaud - Cité Administrative - SDIG	23000	GUERET		46.1684217	1.8711399
23		GUERET		Concession logement	23000	GUERET		46.1734772	1.8791604
24	DDSP	PERIGUEUX	HP	Rue Antoine Gadaud	24000	PERIGUEUX	05 53 06 44 44	45.185551	0.715653
24		PERIGUEUX	CS	102, Rue du Général de Gaulle	24460	COULOUNIEIX CHAMIERS	05 53 08 18 57		
24		PERIGUEUX	CS	Espace Agora	24000	BOULAZAC	05 53 35 16 41	45.181155	0.762695
24		BERGERAC	CP	37, Bd Chanzy	24108	BERGERAC	05 53 74 74 17	44.854757	0.4945323
25	DDSP	BESANCON	HP	2, Avenue de la Gare d'Eau	25000	BESANCON	03 81 21 11 22	47.2326167	6.0211938
25		BESANCON	CS	3, Rue Picasso  - "La Planoise"	25000	BESANCON	03 81 52 22 66	47.2188821	5.9736605
25		BESANCON	CS	7, Rue des Lilas	25000	BESANCON	03 81 88 95 70	47.2597293	6.0438978
25		BESANCON	AN	Fort de Brégille - Chenil	25000	BESANCON		47.240091	6.041378
25		BESANCON	AN	2, Avenue de la Gare d'Eau - Syndicat	25000	BESANCON	03 81 21 11 22	47.2326167	6.0211938
25		MONTBELIARD	CP	2, Ave du Maréchal de Lattre de Tassigny	25206	MONTBELIARD	03 81 91 00 91	47.5115808	6.7976111
25		MONTBELIARD	CS	Rue Duvernoy	25000	AUDINCOURT	03 81 36 99 75	47.480103	6.842682
25		MONTBELIARD	CS	Rue Claude Debussy - Quartier Petite Hollande	25206	MONTBELIARD	03 81 31 28 23		
25		MONTBELIARD	CS	Route de Belchamp + Chenil	25700	VALENTIGNEY LES BUIS	03 81 35 85 22		
25		PONTARLIER	HP	16, Rocade Georges Pompidou	25304	PONTARLIER	03 81 38 51 10	46.901207	6.3541093
25		PONTARLIER	AN	38, Rue de Pontarlier - SDIG	25304	PONTARLIER			
26	DDSP	VALENCE	HP	21, Rue Farnerie	26021	VALENCE	04 75 82 22 22	44.9342698	4.892647
26		VALENCE	CS	6, Ave Jean Moulin	26000	BOURG LES VALENCE	04 75 78 00 17		
26		VALENCE	CS	8, Rue Pierre Sémard	26000	PORTE LES VALENCES	04 75 41 80 31		
26		VALENCE	CS	31 Ave George Clémenceau - Le Polygone	26000	VALENCE	04 75 86 15 05	44.9373288	4.9012811
26		VALENCE	CS	1, Rue Georges Bizet - Quartier Fontbarlettes	26000	VALENCE	04 75 78 51 10		
26		VALENCE	AN	5, Cours Saint Ruff - SDIG	26000	VALENCE			
26		VALENCE	AN	Cité Administrative Brunet - Place L. Le Cardonnel + Chenil	26000	VALENCE	04 75 43 53 79	39.3904915	-0.5430149
26		VALENCE		Stand de tir	26000	BOURG LES VALENCE			
26		MONTELIMAR	CP	Rue Paul Loubet	26203	MONTELIMAR	04 75 00 70 70	44.565012	4.748124
26		ROMANS	CP	Quai St Claire	26100	ROMANS	04 75 70 22 22		
26		ROMANS	CS	Rue Henri Dunand - Immeuble Hermès	26100	ROMANS	04 75 70 34 06 		
27	DDSP	EVREUX	HP	13, Rue de la Rochette	27000	EVREUX	02 32 39 90 00	49.0267965	1.1408511
27		EVREUX	CS	4, Rue Irene et Joliot Curie	27000	EVREUX	02 32 28 37 19	49.0101512	1.1629361
27		EVREUX	AN	Base Aérienne 105 - Chenil	27000	EVREUX			
27		EVREUX	AN	Rue du Val Iton - Stand de Tir	27000	EVREUX			
27		VAL DE REUIL LOUVIERS	CP	Rue de la Chaussée du Parc	27400	VAL DE REUIL LOUVIERS	02 32 59 72 29	49.233093	1.176049
27		VAL DE REUIL LOUVIERS	CS	Place de la République	27400	LOUVIERS	02 32 09 42 80	49.21326	1.166694
27		VERNON	CP	4, Avenue Foch	27200	VERNON	02 32 64 30 00	49.0972722	1.4756857
28	DDSP	CHARTRES	HP	57, Rue du Docteur Maunoury	28000	CHARTRES	02 37 24 75 39	48.4403134	1.4824778
28		CHARTRES	AN	Les Jardins Familiaux du Gord - Chenil	28000	CHARTRES	02 37 28 45 89	48.4479256	1.5047474
28		DREUX	CP	4, Place d'Evesham	28100	DREUX	02 37 65 84 10	48.734284	1.3618661
28		DREUX	CS	Route de Crécy	28500	VERNOUILLET	02 37 46 37 23	48.729418	1.33601
28		DREUX	CS	1 place des Oriels - Quartier des Oriels	28100	DREUX	02 37 64 29 53	48.7375295	1.3875817
28		DREUX	AN	Chemin Notre Dame de la Ronde - Chenil	28100	DREUX	x	48.752858	1.367176
29	DDSP	QUIMPER	HP	3, Rue Theodore le Hars	29000	QUIMPER	02 98 65 60 00	47.9945123	-4.0998306
29		QUIMPER	CS	Lenshescq	29000	ERGUE GABERIC			
29		QUIMPER	CS	1 bis, Place Charles de Gaulle	29000	QUIMPER	02 98 98 00 30	48.0040008	-4.0980376
29		QUIMPER	CS	28, Rue Paul Borossi	29000	QUIMPER	02 98 64 64 30	47.9874988	-4.1290433
29		QUIMPER	CS	20, Rue de Belle Ile	29000	QUIMPER	02 98 52 17 41	39.0638618	-100.234787
29		QUIMPER	AN	2, Allée Couchouren	29000	QUIMPER	02 98 65 60 00	47.994109	-4.0996525
29		BREST	HP	15, Rue Colbert	29200	BREST	02 98 43 77 77	48.3888558	-4.4870165
29		BREST	CS	9, Place Maurice Gilet	29200	BREST	02 98 80 68 68	48.3952953	-4.4797871
29		BREST	CS	23, Place Napoleon III	29200	BREST	02 98 03 12 43	48.4045916	-4.507534
29		BREST	CS	4, Rue Pierre Corre	29200	BREST	02 98 03 27 50	48.4141443	-4.4921516
29		BREST	CS	196, Rue Anatole France	29200	BREST	02 98 45 08 64	48.3828141	-4.5163652
29		BREST	PCPP	Quai n° 3 - Port de Commerce - Ouverture saisonnière	29200	BREST	02 98 43 77 77		
29		BREST	AN	7, Rue Ferdinand de Lesseps - Chenil	29200	BREST		48.4224653	-4.4572193
29		BREST	AN	12, rue du Bois d'Amour - Sûreté départementale	29200	BREST		48.3884485	-4.4864161
29		CONCARNEAU	CP	1, Avenue de la Gare	29900	CONCARNEAU	02 98 50 15 00	47.8744564	-3.9186685
29		MORLAIX	CP	17, Place Charles de Gaulle	29600	MORLAIX	02 98 88 96 00	48.5814927	-3.8315758
29		MORLAIX	CS	Résidence Ilôt Curie	29600	SAINT MARTIN DES CHAMPS	02 98 63 88 88		
29		MORLAIX	AN	1, Rampe Saint Nicolas - SDIG	29600	MORLAIX		48.581693	-3.8317394
2A	DDSP	AJACCIO	HP	1, Rue du Général Fiorella	20000	AJACCIO	04 95 11 17 99	41.9191332	8.736746
2A		AJACCIO	AN	2, Ave Lrenzo Véro - OMP	20000	AJACCIO	04 95 21 27 85		
2A		AJACCIO	AN	Quartier Aspretto - Chenil	20000	AJACCIO	04 95 11 17 17		
2A		AJACCIO	AN	Immeuble Ettori - Quartier Poretta - SDIG	20000	PORTO VECCHIO		42.2669601	8.6995401
2A		AJACCIO		Concession logement		BASTELLICACIA			
2B	DDSP	BASTIA	HP	10 Bis, Rue Luce de Casabianca	20294	BASTIA	04 95 55 22 22	37.1520805	-81.1500015
2B		BASTIA	AN	Camp Colonella d'Istria - Chenil	20294	BORGO		46.0525017	11.46
2B		BASTIA	AN	Bureaux + Stand de tir	20600	FURIANI	04 95 30 79 70	42.6669693	9.421278
2B		BASTIA		Concession logement	20294	BASTIA		42.6636009	9.4366302
30	DDSP	NIMES	HP	245, Avenue Pierre Gamel	30000	NIMES	04 66 27 30 00	43.8261688	4.3614033
30		NIMES	CS	225, Avenue Bir Hakeim - Chemin bas d'Avignon	30000	NIMES	04 66 26 67 59	43.8425317	4.3843501
30		NIMES	CS	4, Promenade Newton - Val de Gour	30000	NIMES	04 66 64 28 27	43.8293547	4.3286393
30		NIMES	CS	2, Place Roger Bastide - "Pissevin"	30000	NIMES	04 66 68 21 40	43.8257882	4.3349269
30		NIMES	AN	Ave Clément Ader - Ecole Nationale de Police - Chenil	30000	NIMES	04 66 28 32 08	43.859189	4.404356
30		NIMES		Concession logement	30000	NIMES		43.8625603	4.3603468
30		ALES	CP	Rue Saint-Sébastien	30107	ALES	04 66 78 14 22	44.127029	4.077533
30		ALES	PCPP	76, Ave Jean Moulin	30100	SAINT CHRISTOL LES ALES	04 66 61 72 88	44.0834324	4.0771009
30		ALES	AN	Lieu Dit La Perusse - Chenil	30100	ALES	04 66 30 44 81	44.139117	4.129022
30		BAGNOLS SUR CEZE	CP	Esplanade André Mourgue	30200	BAGNOLS SUR CEZE	04 66 90 63 90	44.162256	4.61821
30		BEAUCAIRE	CP	Chemin des Romains	30300	BEAUCAIRE	04 66 59 88 10	43.81191	4.619424
31	DDSP	TOULOUSE	HP	23, Boulevard de l'Embouchure	31000	TOULOUSE	05 61 12 77 77	43.6151685	1.4335452
31		TOULOUSE	Csub	36, Route de Cornebarrieu	31700	BLAGNAC	05 62 12 52 40	43.644361	1.361036
31		TOULOUSE	Csub	2, Passage de l'Hôtel de Ville	31170	COLOMIERS	05 34 36 12 66	43.6108322	1.3352591
31		TOULOUSE	Csub	62, Allée de Bellefontaine - Mirail	31000	TOULOUSE	05 34 62 70 10		
31		TOULOUSE	Csub	15, Bd Vincent Auriol	31000	TOURNEFEUILLE	05 61 31 77 00	43.5859939	1.3468226
31		TOULOUSE	Csub	17, rue du Rempart St Etienne - Centre	31000	TOULOUSE	05 61 12 81 97	43.6017546	1.4507586
31		TOULOUSE	CS	46, Allée Charles de Fittes - Quartier Ouest	31000	TOULOUSE	05 61 77 07 77	43.5969914	1.4316183
31		TOULOUSE	CS	104, Avenue de Fronton - Quartier Nord	31000	TOULOUSE	05 34 42 23 20	37.1758995	-83.3368835
31		TOULOUSE	CS	125, Rue Henri Desbals - Bagatelle	31000	TOULOUSE	05 62 11 91 10	37.1758995	-83.3368835
31		TOULOUSE	CS	16, Ave Camille Flammarion - Quartier Jolimont	31000	TOULOUSE	05 61 61 10 70	43.6110716	1.4625711
31		TOULOUSE	CS	3, Rue Raymond Corraze - Quartier Ormeau	31000	TOULOUSE	05 61 80 45 41	37.1758995	-83.3368835
31		TOULOUSE	CS	30, Route de Narbonne - Quartier Sud	31000	TOULOUSE	05 34 31 81 40	37.1758995	-83.3368835
31		TOULOUSE	PCPP	9, Rue Raymond Corraze - Quartier Ormeau	31000	TOULOUSE	05 61 20 10 02	37.1758995	-83.3368835
31		TOULOUSE	PCPP	1 Allée Jean Jaurès - Métro  	31000	TOULOUSE	05 61 62 23 22	37.1758995	-83.3368835
31		TOULOUSE	AN	Chemin Saudrune - Piste éducation routière Candie	31000	TOULOUSE		37.1758995	-83.3368835
31		TOULOUSE	AN	38, Chemin du Prat Long - Compagnie Sécurisation	31000	TOULOUSE	05 34 40 16 50	37.1758995	-83.3368835
31		TOULOUSE	AN	4, Chemin de Bordeblanque - Chenil	31170	COLOMIERS	05 34 55 48 96	40.3699799	-80.5236816
31		TOULOUSE		Parking	31000	TOULOUSE		37.1758995	-83.3368835
31		SAINT GAUDENS	CP	2, Place du Capitaine Gesse	31800	SAINT GAUDENS	05 61 94 87 00	43.1098098	0.7218662
32	DDSP	AUCH	CP	1, Rue du Préfet Claude Erignac	32000	AUCH	05 62 61 54 54	43.6465251	0.5861485
32		AUCH	AN	7, Bis rue Gambetta - SDIG	32000	AUCH	05 62 60 69 48	34.1132202	-103.1346588
32		AUCH		Concession logement	32000	AUCH		43.653286	0.5749015
32		AUCH		Stand de tir	32000	AUCH		43.653286	0.5749015
33	DDSP	BORDEAUX	HP	23, Rue François de Sourdis	33000	BORDEAUX	05 57 85 77 77	44.8346499	-0.5886349
33		BORDEAUX	Csub	49, Avenue de Lattre de Tassigny	33130	BEGLES	05 57 35 65 70	36.7983704	-77.0337067
33		BORDEAUX	Csub	135, Ave René Cassagne	33150	CENON	05 56 38 52 52	44.857509	-0.515664
33		BORDEAUX	Csub	Rue Coudoul	33110	LE BOUSCAT	05 57 22 52 30	44.866	-0.598321
33		BORDEAUX	Csub	14, Place Charles de Gaulle	33700	MERIGNAC	05 56 47 11 54	44.8426115	-0.6472275
33		BORDEAUX	Csub	49, Avenue du Général Leclerc	33600	PESSAC	05 57 26 38 70	44.7946406	-0.6690593
33		BORDEAUX	Csub	35, Rue des Charmilles	33400	TALENCE	05 57 35 77 22	44.8159019	-0.5913654
33		BORDEAUX	CS	Rue Charles Tournemire - Les Aubiers	33000	BORDEAUX	05 56 50 52 93	41.9355888	-104.8450775
33		BORDEAUX	CS	23, rue Ducau	33000	BORDEAUX	05 56 52 43 28	44.8517525	-0.5768721
33		BORDEAUX	CS	21, Rue du Cerf Volant	30000	BORDEAUX	05 56 81 89 12	44.8379494	-0.571697
33		BORDEAUX	CS	7, Rue Serr	33000	BORDEAUX	05 56 77 00 00	44.8427187	-0.533048
33		BORDEAUX	CS	21, Rue Marbotin - Place des Capucins	33000	BORDEAUX	05 56 91 12 45	41.9355888	-104.8450775
33		BORDEAUX	CS	7, Rue Fernand Cazères	87000	CAUDERAN	05 56 08 24 74	44.8513681	-0.6158057
33		BORDEAUX	CS	180, Ave Pasteur	33270	FLOIRAC	05 56 86 12 99	44.837456	-0.530287
33		BORDEAUX	CS	201, Cours du Général de Gaulle	33170	GRADIGNAN	05 56 75 24 80	44.7708143	-0.6154115
33		BORDEAUX	CS	2, rue des Garosses 	33000	LORMONT	05 56 06 13 69	44.8769097	-0.5215108
33		BORDEAUX	CS	593, Route de Toulouse	33140	VILLENAVE D'ORNON	05 56 87 38 86	44.7823153	-0.566046
33		BORDEAUX	AN	59, Avenue J.F Kennedy - Chenil	33700	MERIGNAC	05 56 13 00 68		
33		BORDEAUX	AN	Cours Dupré de Saint-Maur - GIPN	33000	BORDEAUX			
33		BORDEAUX	AN	30, Rue Castéjà - OMP.	33000	BORDEAUX	05 56 99 77 66	44.8424436	-0.5839131
33		BORDEAUX		Concession logement	33000	BORDEAUX		44.8388062	-0.5895059
33		BORDEAUX		Parking	33000	BORDEAUX		41.9355888	-104.8450775
33		ARCACHON	CP	1, Place de Verdun	33120	ARCACHON	05 57 72 29 30		
33		ARCACHON	CS	17 bis, Ave Charles de Gaulle	33115	LA TESTE DE BUCH	05 56 54 48 20	30.9075546	-91.8198318
33		ARCACHON	PCPP	4, Ave de Verdun	33115	CAZAUX	05 57 52 23 87	44.537886	-1.1524036
33		ARCACHON	AN	9, Place de Verdun - local de stockage.	33120	ARCACHON	05 57 72 29 42 		
33		LIBOURNE	CP	80, Cours Tourny - Centre Ville Bastide	33505	LIBOURNE	05 57 55 28 30	44.5328712	0.76801
34	DDSP	MONTPELLIER	HP	206, Rue du Comte de Melgueil	34000	MONTPELLIER	04 99 13 50 00	43.6037555	3.8922218
34		MONTPELLIER	AN	135, Rue Robespierre - OMP	34000	MONTPELLIER	04 67 91 70 45	44.2602882	-72.5762634
34		MONTPELLIER	CS	500, Ave de Louisville - Lou Cap Dou Mail - Mosson	34000	MONTPELLIER	04 67 40 71 90	44.2602882	-72.5762634
34		MONTPELLIER	CS	Allée de Lattre de Tassigny - Comédie	34000	MONTPELLIER	04 99 74 26 74	44.2602882	-72.5762634
34		MONTPELLIER	CS	Ave de l'Agau	34000	LATTES	04 33 79 67 00	43.584089	3.908777
34		MONTPELLIER	AN	Rue des Marels - Chenil	34000	MONTPELLIER	04 67 65 36 84	43.617309	3.922968
34		MONTPELLIER		Concession logement		MONTPELLIER		44.2602882	-72.5762634
34		AGDE	CP	Avenue du Général de Gaulle	34300	AGDE	04 67 01 02 00	43.313082	3.473019
34		AGDE	CS	Ave des Sergents - Parking Alsace Lorraine	34300	LE CAP D'AGDE	04 67 00 14 21		
34		BEZIERS	CP	Boulevard Edouard Herriot	34500	BEZIERS	04 67 49 54 00	43.345759	3.217333
34		BEZIERS	CS	Rue Georges Bayrou - Centre Commercial - Deveze	34500	BEZIERS	04 67 76 16 05	43.3484039	3.2345159
34		SETE	CP	50,  Quai de Bosc	34200	SETE	04 67 46 80 22	43.4089934	3.6947007
34		SETE	CS	1, Rue Frédéric Mistral	34110	FRONTIGNAN	04 67 48 12 48	43.446946	3.7537133
34		SETE	AN	15, Quai François Maillol - Stand de Tir	34200	SETE	04 67 74 90 45		
35	DDSP	RENNES	HP	22, Boulevard de la Tour d'Auvergne	35000	RENNES	02 99 65 00 22	48.1020847	-1.690218
35		RENNES	CS	16, Rue de Penhouet	35000	RENNES	02 99 79 16 07	48.1139687	-1.6808416
35		RENNES	CS	5, Rue des Longs Prés "Maurepas"	35700	RENNES	02 99 38 03 72	43.6453209	-96.7164078
35		RENNES	CS	14, Bd Louis Volcair "Le Blosne"	35200	RENNES	02 99 50 96 50	48.088215	-1.6625994
35		RENNES	CS	54, Cours Kennedy - Quartier Villejean - Saint Martin	35200	RENNNES		43.6453209	-96.7164078
35		RENNES	PCPP	6, Cours Camille Claudel	35136	SAINT JACQUES DE LA LANDE		48.0811447	-1.713784
35		RENNES	PCPP	1, Rue de Provence	35135	CHANTEPIE		48.0886315	-1.6213297
35		RENNES	AN	Lieu dit Pace - Le Casse - Chenil	35000	RENNES		43.6453209	-96.7164078
35		RENNES	AN	Bd Jules Valles - 16ème Groupement d'Artillerie - GIPN	35136	SAINT JACQUES DE LA LANDE			
35		FOUGERES	CP	6, Place de la République	35300	FOUGERES	02 99 94 17 17	48.3501113	-1.1960587
35		FOUGERES	PCPP	Parvis des droits de l'Homme	35300	LECOUSSE			
35		SAINT MALO	CP	3, Place des frères Lamennais	35402	SAINT MALO	02 99 20 69 40		
35		SAINT MALO	CS	46, Boulevard Féart	35800	DINARD	02 99 16 83 83	48.6297285	-2.0554923
35		SAINT MALO	CS	Place Bouvet - Quartier St Servant - La Découverte	35402	SAINT SERVAN	02 99 81 72 51		
36	DDSP	CHATEAUROUX	CP	Boulevard George Sand + Chenil 	36000	CHATEAUROUX	02 54 08 50 17	46.807006	1.68793
36		CHATEAUROUX	AN	Boulevard George Sand - Bât J	36000	CHATEAUROUX			
37	DDSP	TOURS	HP	70 - 72, Rue Marceau	37033	TOURS	02 47 33 80 69	47.3915595	0.6859485
37		TOURS	Csub	Place du Général Leclerc	37300	JOUE LES TOURS	02 47 73 66 90		
37		TOURS	CS	22, Rue Henri Barbusse	37700	SAINT PIERRE DES CORPS	02 47 44 21 28	47.3898419	0.7201975
37		TOURS	CS	148, Ave André Maginot	37100	TOURS	02 47 54 49 07	47.4176171	0.6912455
37		TOURS	CS	23, Rue Jacques Marie Rougé	37000	TOURS	02 47 05 19 73	47.3837569	0.6971115
37		TOURS	PCPP	11, Rue des Saussure	37200	TOURS	02 47 28 98 79	47.3655367	0.7061157
37		TOURS	PCPP	23, Rue de Grand Mont	37550	SAINT AVERTIN	02 47 27 12 05	32.5167999	-92.4335022
37		TOURS	PCPP	Hôtel de Ville - Parc de la Perraudière	37540	SAINT CYR SUR LOIRE	02 47 87 02 14		
37		TOURS	AN	Rue du Pont aux Oies - Chenil	37540	SAINT CYR SUR LOIRE	02 47 37 95 49		
37		TOURS		Parking	37033			35.2672386	-90.5584488
38	DDSP	GRENOBLE	HP	36, Bd Maréchal Leclerc	38000	GRENOBLE	04 76 60 40 40	45.1930359	5.7366362
38		GRENOBLE	CS	Ave du 8 Mai 1945	38130	ECHIROLLES	04 76 09 06 07	45.148958	5.717724
38		GRENOBLE	CS	81, Mail Marcel Cachin	38600	FONTAINE	04 76 26 23 17	45.1932102	5.6874096
38		GRENOBLE	CS	107, Ave Benoit Frachon	38950	SAINT MARTIN d'HERES	04 7654 62 36	45.1776695	5.7561238
38		GRENOBLE	CS	77, Rue de la Bruyere	38100	VILLENEUVE	04 76 09 46 97		
38		GRENOBLE	AN	Echangeur Autoroute - Chenil	38120	SAINT EGREVE	04 76 75 39 89	48.9702988	-107.4199982
38		GRENOBLE	AN	Algécos	38000	GRENOBLE		40.2379913	-75.0399399
38		BOURGOIN JALLIEU	CP	5, Avenue Henri Barbusse	38300	BOURGOIN JALLIEU	04 74 43 97 17	45.599416	5.266558
38		BOURGOIN JALLIEU	AN	35, Rue des Alpes - Escadron de Gendarmerie - SDIG	38300	BOURGOIN JALLIEU			
38		VIENNE	CP	6, Place Pierre Sémard	38200	VIENNE	04 74 78 06 78	45.5213329	4.8740219
38		VIENNE	PCPP	143, Montée Lucien Magnat	38200	PONT L'EVEQUE	04 74 16 18 57		
38		VOIRON	CP	114, Cours Becquart Castelbon	38500	VOIRON	04 76 65 93 93	45.361565	5.590734
39	DDSP	LONS LE SAUNIER	HP	6, Avenue du 44 eme Régiment d' Infanterie	39016	LONS LE SAUNIER	03 84 35 17 10		
39		LONS LE SAUNIER	AN	8. Rue Reybert - SDIG	39017	SAINT CLAUDE		29.9725895	-90.0373764
39		DOLE	CP	1, Rue du 21 Janvier	39107	DOLE	03 84 79 63 10	47.0949687	5.4956748
40	DDSP	MONT DE MARSAN	CP	22-24, Place Pancaut + Chenil	40000	MONT DE MARSAN	05 58 05 52 52	43.8892512	-0.5028244
40		DAX	CP	5, Rue des Fusillés	40107	DAX	05 58 56 58 58	43.7103513	-1.051453
40		DAX	AN	3,  Rue des Fusillés	40107	DAX		43.3084297	-74.0163498
40		DAX	CS	Place du Marché	40990	SAINT PAUL LES DAX	05 58 91 69 22	43.9101982	-0.84289
41	DDSP	BLOIS	CP	42, Quai Saint Jean	41000	BLOIS	02 54 55 17 99	47.5898838	1.3418403
41		BLOIS	CS	133, Rue Michel Begon	41000	BLOIS	02 54 43 15 58	47.5949169	1.3090233
41		BLOIS	AN	Zone Insdustrielle des Gailletrous - Chenil 	41260	LA CHAUSSEE SAINT VICTOR	02 54 55 17 99		
41		ROMORANTIN LANTHENAY	CP	4, Rue du Four à Chaux	41206	ROMORANTIN LANTHENAY	02 54 95 22 41	47.3591262	1.7465794
41		VENDOME	CP	27 bis, Faubourg Chartrain	41100	VENDOME	02 54 73 41 40	47.7957248	1.0680728
42	DDSP	SAINT ETIENNE	CP	99 Bis, Cours Fauriel	42000	SAINT ETIENNE	04 77 43 28 28	45.427704	4.400491
42		SAINT ETIENNE	CS	Rue Georges Bizet - quartier Montreynaud	42000	SAINT ETIENNE	04 77 74 62 36	45.471365	4.401245
42		SAINT ETIENNE	CS	26, Rue Gambetta	42230	ROCHE LA MOLIERE	04 77 90 66 64		
42		SAINT ETIENNE	CS	17, Rue Pointe Cadet	42000	SAINT ETIENNE	04 77 42 90 15	45.4345404	4.3909607
42		SAINT ETIENNE	CS	2, Rue Raoul Follereau	42000	SAINT ETIENNE	04 77 57 33 82	45.4228056	4.3834989
42		SAINT ETIENNE	CS	2, rue Balay	42000	SAINT ETIENNE	04 77 49 21 60		
42		SAINT ETIENNE	CS	2, Rue Bertrand Russel	42000	SAINT ETIENNE	04 77 53 97 30		
42		SAINT ETIENNE	CS	2, Rue Charles de Gaulle - Préfecture	42000	SAINT ETIENNE	04 77 48 48 48	45.4420153	4.3864172
42		SAINT ETIENNE	AN	43, Rue du Docteur Michelon - Chenil	42000	SAINT ETIENNE	04 77 25 46 24		
42		SAINT ETIENNE	AN	Palais de Justice - Petit Dépôt	42000	SAINT ETIENNE	04 77 43 33 17		
42		SAINT ETIENNE	AN	8, Rue Barrouin	42000	SAINT ETIENNE	04 77 43 27 90	45.4539432	4.3858579
42		SAINT ETIENNE	AN	5, Bd Karl Marx	42000	SAINT ETIENNE		45.4233786	4.4099021
42		GIER	CP	64, Boulevard Waldeck Rousseau	42400	SAINT CHAMOND	04 77 31 06 06	45.4750928	4.5051515
42		GIER	Csub	60, Rue Claude Drivon	42800	RIVE DE GIER	04 77 75 22 70	45.5256807	4.6101325
42		GIER	CS	26, Cours Marin	42152	HORME	04 77 22 02 61	45.4859439	4.5439598
42		MONTBRISON	CP	4, Place des Comtes du Forez	42600	MONTBRISON	04 77 96 71 00		
42		ONDAINE	Csub	15, Rue de la République	42501	LE CHAMBON FEUGEROLLES	04 77 61 01 37	45.3943359	4.3052459
42		ONDAINE	CP	15, Avenue de la Gare	42703	FIRMINY	04 77 40 15 40	45.390801	4.2867283
42		ROANNE	CP	Rue Raoul Follereau	42332	ROANNE	04 77 44 43 00	46.032253	4.074706
43	DDSP	LE PUY EN VELAY	CP	1, Rue de la Passerelle	43000	LE PUY EN VELAY	04 71 04 04 22	45.0397997	3.8869393
44	DDSP	NANTES	HP	Place Waldeck Rousseau	44000	NANTES	02 53 46 70 00	47.227353	-1.552035
44		NANTES	Csub	8, Allée de Touraine	44400	REZE	02 51 11 23 00	47.185814	-1.5561061
44		NANTES	Csub	Bd François Mitterrand	44800	SAINT HERBLAIN	02 40 85 00 00	47.7318115	-1.38249
44		NANTES	Csub	Cours Olivier de Clisson	44000	NANTES	02 40 20 73 50	47.213279	-1.554478
44		NANTES	CS	26, Rue du Champ de Tir	44000	NANTES	02 40 35 07 00	47.2555014	-1.5166172
44		NANTES	CS	38, Rue Alexandre Goupil	44700	ORVAULT	02 40  67 12 60	47.2535078	-1.5972243
44		NANTES	CS	11, Rue du 8 Mai 1945	44230	SAINT SEBASTIEN SUR LOIRE	02 88 00 10 09	47.2067741	-1.5026781
44		NANTES	CS	 Boulevard Stalingrad - Gare SNCF	44000	NANTES	02 40 08 16 75	47.218188	-1.541264
44		NANTES	CS	130, Boulevard de la Liberté	44000	NANTES	02 51 80 43 70	47.2056497	-1.5879534
44		NANTES	PCPP	1, Place des Thebaudieres	44000	NANTES	02 40 63 48 00	47.2437136	-1.6060704
44		NANTES	PCPP	Place Roger Sallengro - Préfecture	44000	NANTES	02 40 41 20 13	47.220109	-1.552293
44		NANTES	AN	4, Bd de la Beaujoire- piste éducatiion nroutière.	44000	NANTES	02 40 20 16 56		
44		NANTES	AN	Zone du Perray - Chenil	44000	NANTES	02 40 52 24 84		
44		NANTES		Concession logement	44000	NANTES		47.2219162	-1.5504483
44		NANTES		Concession logement	44000	NANTES		47.2219162	-1.5504483
44		LA BAULE ESCOUBLAC	CP	Place Rhin et Danube + Chenil	44500	LA BAULE ESCOUBLAC	02 51 73 75 00	47.288391	-2.388899
44		LA BAULE ESCOUBLAC	PCPP	7, Ave de la République	44500	PORNICHET	x		
44		LA BAULE ESCOUBLAC	PCPP	4, Rue Paul Lesage	44380	LE POULIGUEN	02 40 42 18 50	47.2760162	-2.4309929
44		SAINT NAZAIRE	CP	57 - 59, Rue du Général de Gaulle	44600	SAINT NAZAIRE	02 51 76 17 00	47.274607	-2.2162884
44		SAINT NAZAIRE	CS	2, Rue des Amandiers	44600	SAINT NAZAIRE	02 40 70 33 22	47.262306	-2.255279
45	DDSP	ORLEANS	HP	63, Rue du Faubourg Saint Jean	45043	ORLEANS	02 38 24 30 00	47.9066731	1.8890251
45		ORLEANS	Csub	Place Choiseul	45100	ORLEANS LA SOURCE	02 38 69 70 75		
45		ORLEANS	CS	1, Rue du Colonel Fabien	45400	FLEURY LES AUBRAIS	02 38 73 92 32	47.9362679	1.9122863
45		ORLEANS	CS	754, Rue de Couasnon	45160	OLIVET	02 38 66 93 62	47.8762816	1.9020359
45		ORLEANS	CS	6, Rue Saint-Yves - SNCF	45000	ORLEANS	02 38 24 31 40	47.9098312	1.9055556
45		ORLEANS	CS	4, Rue François Couperin - Quartier Argonne	45000	ORLEANS	02 38 86 40 23	47.9126019	1.928878
45		ORLEANS	CS	4, Allée Jacques Monod	45800	SAINT JEAN DE BRAYE	02 38 24 70 36	47.9133052	1.9695661
45		ORLEANS	CS	Rue des 10 Arpents	45000	SAINT JEAN DE RUELLE	02 38 88 65 88	47.908279	1.87407
45		ORLEANS	AN	Rue des Pins - Chenil	45400	FLEURY LES AUBRAIS	02 38 84 46 63	47.945233	1.929365
45		MONTARGIS	CP	27, Rue du Port	45200	MONTARGIS	02 38 28 38 28	48.0009594	2.7296077
46	DDSP	CAHORS	HP	Rue Mendes France	46000	CAHORS	05 65 23 17 17	44.451487	1.439649
46		CAHORS	AN	Place des Decarnes - SDIG	46000	FIGEAC	05 65 34 11 67		
46		CAHORS		Concession logement	46000	CAHORS		44.4566002	1.4387928
47	DDSP	AGEN	HP	2 à 6, Rue Palissy	47000	AGEN	05 53 68 17 00	44.2002663	0.6123465
47		VILLENEUVE SUR LOT	CP	Boulevard de la République	47200	VILLENEUVE SUR LOT	05 53 49 62 70	44.40874	0.705452
48	DDSP	MENDE	HP	4, Rue des Ecoles	48000	MENDE	04 66 65 63 63	44.5153114	3.4996994
49	DDSP	ANGERS	HP	15 bis, Rue du Petit Thouars	49000	ANGERS	02 41 57 52 00	47.4627855	-0.5517733
49		ANGERS	CS	2, Rue de l'Abbaye	49000	ANGERS	02 41 38 30 32	47.4737638	-0.5727187
49		ANGERS	CS	9, Rue de Normandie - Monplaisir	49000	ANGERS	02 41 43 43 65	47.4873435	-0.5257661
49		ANGERS	CS	1, Rue André Maurois	49000	ANGERS	02 41 68 25 33	47.4483121	-0.563146
49		ANGERS	PCPP	Esplanade de l'Hôtel de Ville	49240	AVRILLE	02 41 69 39 74	47.505266	-0.589984
49		ANGERS	PCPP	Esplanade Claude Gendron	49130	LES PONTS DE CE	02 41 44 26 54		
49		ANGERS	PCPP	Route de Beaufort	49124	SAINT BARTHELEMY D'ANJOU	02 41 96 96 90	47.46691	-0.480621
49		ANGERS	PCPP	20, Place des Tilleuls	49800	TRELAZE	02 41 33 17 19	47.4463154	-0.5038646
49		ANGERS	AN	7, Rue du Clon - OMP, syndicats.	49000	ANGERS			
49		ANGERS	AN	Promenade de la Baumette - Chenil	49000	ANGERS	02 41 66 86 35	47.455245	-0.57292
49		CHOLET	CP	4, Rue du Bordage-Fontaine	49300	CHOLET	02 41 64 82 00	47.0515858	-0.8688012
49		CHOLET	CS	Avenue Maréchal Foch - Asile Leboeuf	49300	CHOLET	02 41 64 92 60	47.061687	-0.887602
49		CHOLET	CS	2, Rue Robert Schuman	49300	CHOLET	02 41 64 97 10	47.04615	-0.8855801
49		CHOLET		Stand de tir					
49		SAUMUR	CP	115, Rue du Chemin Vert	49400	SAUMUR	02 41 83 24 00	47.242836	-0.077338
50	DDSP	SAINT LO	CP	Boulevard de la Dollée	50000	SAINT LO	03 33 72 68 00		
50		SAINT LO	AN	Sous-Préfecture		AVRANCHES		48.6745987	-1.35865
50		CHERBOURG	HP	2, Rue du Val de Saire	50100	CHERBOURG OCTEVILLE	02 33 88 76 76	49.6390012	-1.6187105
50		CHERBOURG	CS	41, Rue Becquerel	50130	CHERBOURG OCTEVILLE	02 87 87 52 80	49.627795	-1.638844
50		CHERBOURG	CS	39, Rue Roger Salengro	50120	EQUEURDREVILLE	02 33 93 86 42	49.6504475	-1.6514661
50		CHERBOURG	CS	31, Rue Médéric + Chenil	50110	TOURLAVILLE	02 33 22 41 94	49.6415838	-1.5915176
50		CHERBOURG	AN	15, Rue Louis Philippe - SDIG	50130	CHERBOURG		35.1367989	-79.0117035
50		COUTANCES	CP	1, Rue du Palais de Justice	50200	COUTANCES	02 33 76 57 57	49.0490494	-1.4429592
50		GRANVILLE	CP	79, Rue du Port	50400	GRANVILLE	02 33 91 27 50	48.8368464	-1.6018394
51	DDSP	REIMS	HP	40, Bd Louis Roederer	51100	REIMS	03 26 61 44 00	49.2558695	4.0216283
51		REIMS	CS	2, Place Jean Moulin	51100	REIMS	03 26 07 52 94	49.2554775	4.060493
51		REIMS	CS	1, Place Louise Michel	51500	REIMS	03 26 86 66 40	49.222977	4.053019
51		REIMS	CS	2 Bis, Esplanade Remi Pellot	51100	REIMS	03 26 09 73 78	49.2711569	4.0202027
51		REIMS	CS	2, Rue François Mauriac	51100	REIMS	03 26 06 40 22	49.2186937	4.0474743
51		REIMS	CS	3, Rue Blaise Pascal	51100	REIMS	03 26 06 20 03	49.2265923	4.0365852
51		REIMS	CS	15, Ave Bonaparte	51430	TINQUEUX	03 26 08 07 74	49.2473783	3.9916715
51		REIMS	AN	17,  Rue Clovis Chezel - Chenil	51100	REIMS	03 26 61 44 75	49.2515507	4.0277703
51		CHALONS EN CHAMPAGNE	HP	1, Place aux Chevaux	51000	CHALONS EN CHAMPAGNE	03 26 66 27 27		
51		CHALONS EN CHAMPAGNE	CS	18, Rue du Général Giraud	51000	CHALONS EN CHAMPAGNE	03 26 26 93 83		
51		CHALONS EN CHAMPAGNE	AN	Chemin des Plâtriers - Chenil	51000	FAGNIERES			
51		EPERNAY	CP	7, Rue Jean Chandon Moet	51200	EPERNAY	03 26 56 96 60	49.042069	3.9577548
51		EPERNAY	PCPP	5, Square d'Offenbach	51200	EPERNAY	03 26 54 72 93	33.416523	-111.8503189
52	DDSP	CHAUMONT	CP	1 et 3, Avenue Carnot	52000	CHAUMONT	03 25 03 85 50		
52		SAINT DIZIER	CP	5, Rue du Brigadier Albert	52100	SAINT DIZIER	03 25 06 56 56	48.6396252	4.962141
52		SAINT DIZIER	AN	Chemin de l'Agenteligne - Chenil	52100	SAINT DIZIER		30.6973991	-91.4220963
53	DDSP	LAVAL	CP	7, Place Mendes France	63013	LAVAL	02 43 67 81 81	48.0646813	-0.7772881
54	DDSP	NANCY	HP	38, Boulevard Lobau	54000	NANCY	03 83 17 27 37	48.6877343	6.1947092
54		NANCY	CS	5, Rue Jean Philippe Rameau	54110	JARVILLE-LA-MALGRANGE	03 83 57 84 79	48.67273	6.2069683
54		NANCY	CS	7 bis, Bd de l' Europe - Bât Savoie	54520	LAXOU	03 83 27 78 81	36.2333984	-81.5500183
54		NANCY	CS	860, Ave du Bon Curé	54710	LUDRES	03 83 25 20 43	48.6160491	6.1739027
54		NANCY	CS	Espace Laurent Bonnevay - Haut du Lièvre	54000	NANCY	03 83 98 57 77	48.6880493	6.1734505
54		NANCY	CS	3, Rue Saint Léon	54000	NANCY	03 83 90 75 51	48.6896266	6.1721747
54		NANCY	CS	46, rue Edgar Quinet - Espace Beau rivage	54131	SAINT MAX	03 83 20 58 42		
54		NANCY	CS	5, Rue Jules Gueldes	54510	TOMBLAINE	03 83 20 58 41	48.6884615	6.2090181
54		NANCY	CS	1, Rue de Parme	54500	VANDOEUVRE	03 83 56 16 56	48.6599921	6.1722449
54		NANCY	AN	29, Boulevard Charles v - USOP	54000	NANCY	03 83 35 43 69	48.7004037	6.1763723
54		NANCY	AN	1, Rue du Préfet Claude Erignac - Préfecture	54000	NANCY	03 83 34 26 26	37.0723801	-84.7507172
54		NANCY	AN	Château de Remicourt - Chenil	54600	VILLERS LES NANCY	03 83 47 57 81		
54		BRIEY	CP	Rue Marguerite Puhl Demange	54150	BRIEY	03 82 47 12 30	49.255715	5.94337
54		CONFLANS EN JARNISY	CP	41, Avenue du Général de Gaulle	54800	CONFLANS EN JARNISY	03 82 47 14 30	49.1666159	5.8614877
54		DOMBASLE SUR MEURTHE	CP	1, Rue de Filderstadt	54110	DOMBASLE SUR MEURTHE	03 83 45 87 17	48.6200702	6.3531205
54		DOMBASLE SUR MEURTHE	CS	13, Rue Anatole France	54210	SAINT NICOLAS DE PORT	03 83 48 11 17	48.6311262	6.3040589
54		LONGWY	CP	1, Avenue Raymond Poincaré	54400	LONGWY	03 82 24 30 01	49.5179826	5.7661566
54		LUNEVILLE	CP	2, Rue Clarenthal	54300	LUNEVILLE	03 83 76 17 17	48.5928738	6.4993216
54		PONT A MOUSSON	CP	24, Place Saint Antoine	54700	PONT A MOUSSON	03 83 80 40 80	48.903676	6.0552122
54		TOUL	CP	13 bis, Ave du Colonel Pechot	54200	TOUL	03 83 65 17 17	48.6784017	5.8850865
54		VILLERUPT	CP	4, Rue Albert Lebrun	54190	VILLERUPT	03 82 25 93 20	49.470741	5.929785
55	DDSP	BAR LE DUC	CP	59, Rue du Bourg	55012	BAR LE DUC	03 29 79 00 17	48.7738869	5.1573247
55		BAR LE DUC	CS	4, Bd des Ardennes - Quartier Sainte Catherine	55000	BAR LE DUC	03 29 45 05 65		
55		VERDUN	CP	2, Rue Chaussée	55107	VERDUN	03 29 86 00 17	49.1620084	5.3860648
56	DDSP	VANNES	HP	13, Boulevard de la Paix	56000	VANNES	02 97 68 33 33	47.6603133	-2.7613344
56		VANNES	CS	1, Rue Pierre Bonnard	56000	VANNES	02 97 62 05 65	33.6626015	-86.5952988
56		VANNES	CS	15, Place Cuxhaven	56000	VANNES	02 97 62 26 20	47.6487017	-2.7725159
56		VANNES	AN	Rue Saint Tropez - Chenil	56000	VANNES	02 97 54 87 95	47.656623	-2.750377
56		LORIENT	HP	3, Quai de Rohan	56100	LORIENT	02 97 64 02 00	47.7453053	-3.3617225
56		LORIENT	CS	21, Avenue de la Libération	56700	HENNEBONT	02 97 36 20 39	47.8044009	-3.2767489
56		LORIENT	CS	74, Rue Marcel Sembat	56600	LANESTER	02 97 76 27 23	47.7650499	-3.3453593
56		LORIENT	CS	8, Place de l'Eglise	56100	PLOEMEUR	02 97 86 00 00	47.7367705	-3.4278115
56		LORIENT	AN	3, Quai Rohan	56100	LORIENT	02 97 64 02 00	47.7453053	-3.3617225
56		LORIENT	AN	Rue de Kerdual - Base Militaire de Lann-Bihoue - Chenil	56100	LORIENT	02 97 64 02 00	47.761555	-3.381645
57	DDSP	METZ	HP	45, Rue Belle Isle	57000	METZ	03 87 16 17 17	49.1258943	6.1744958
57		METZ	CS	83 - 85, Rue Saint Pierre	57000	SABLON	03 87 55 92 40	49.1000058	6.1755508
57		METZ	CS	18, Rue du Maine	57070	METZ	03 87 37 91 11	49.1182747	6.2297974
57		METZ	CS	155, Rue de Pont à Mousson	57000	MONTIGNY LES METZ	03 87 66 36 44		
57		METZ	CS	2, Rue du Fort Gambetta	57140	WOIPPY	03 87 31 47 03	49.1486966	6.1634229
57		METZ	AN	6, Rue des 3 Boulangers -OMP	57000	METZ	03 87 75 48 16	49.114497	6.1753607
57		METZ	AN	6, Rue Belle Isle - Chenil	57000	MEZIERES LES METZ			
57		FORBACH	HP	11, Rue de la Gare	57600	FORBACH	03 87 84 41 00		
57		FORBACH	PCPP	205, Rue du Général de Gaulle	57540	PETITE ROSSELLE	03 87 85 29 03	49.2076475	6.8447967
57		FORBACH	PCPP	43, Rue Saint Téhodore	57350	STIRING WENDEL	03 87 87 49 71	49.199388	6.9266295
57		FREYMING MERLEBACH	CP	39, Rue Pasteur	57800	FREYMING MERLEBACH	03 87 04 47 10	49.1433553	6.8139534
57		FREYMING MERLEBACH	Csub	7, Rue Foch	57500	SAINT AVOLD	03 87 92 18 97	49.1032292	6.7027841
57		FREYMING MERLEBACH	CS	19, Rue de la Mairie	57490	L'HOPITAL	03 87 93 67 68	49.1577683	6.7322194
57		HAGONDANGE	CP	1, Rue du Docteur Zamenhof	57300	HAGONDANGE	03 87 71 45 21	49.2542238	6.1646884
57		HAGONDANGE	Csub	3, Avenue Maurice Thorès	57250	MOYEUVRE GRANDE	03 87 67 74 45	49.251717	6.0452646
57		HAGONDANGE	PCPP	23, Rue Raymond Mondon	57120	ROMBAS	03 87 67 06 05		
57		SARREBOURG	CP	2, Rue du Président Schuman	57400	SARREBOURG	03 87 03 21 63		
57		SARREGUEMINES	CP	26, Rue Raymond Poincaré	57200	SARREGEMINES	03 87 98 42 54	49.1073146	7.0713749
57		THIONVILLE	HP	36, Bd Foch	57100	THIONVILLE	03 82 53 39 80	49.3612102	6.1648992
57		THIONVILLE	Csub	6, Rue de la Fontaine	57700	HAYANGE	03 82 86 40 00	49.35834	6.047746
57		THIONVILLE	CS	27, Ave de Lorraine	57190	FLORANGE	03 62 82 50 05		
57		THIONVILLE	CS	67, Rue du Stade	57970	YUTZ	03 83 86 45 10	49.3458106	6.188636
57		THIONVILLE	AN	Rue des Pyramides - Chenil	57100	THIONVILLE		49.36731	6.159638
58	DDSP	NEVERS	CP	6 Bis, Avenue Marceau	58000	NEVERS	03 86 60 53 00	46.9919318	3.1585586
58		NEVERS	CS	11, rue Pierre Malardier	58000	NEVERS	03 86 93 97 50	46.9825138	3.1877819
58		NEVERS	CS	13, Rue Jules Vernes	58000	NEVERS	03 86 71 09 00	46.9929309	3.1315877
58		NEVERS	AN	Square de la Résistance - OMP	58000	NEVERS		46.992278	3.160569
59	DDSP	LILLE AGGLOMERATION	HP	19, Rue des Marquillies	59000	LILLE	03 52 59 80 00	50.6150672	3.0501839
59		LILLE AGGLOMERATION	CD	6, Rue de l' Industrie	59200	TOURCOING	03 20 69 27 27	50.7245693	3.161581
59		LILLE AGGLOMERATION	CD	72 - 74, Bd de Belfort	59100	ROUBAIX	03 20 81 35 35	50.6901652	3.186137
59		LILLE AGGLOMERATION	CD	17, Rue des Chauffours	59280	ARMENTIERES	03 20 17 23 23	50.6874945	2.8865868
59		LILLE AGGLOMERATION	CD	17, Rue du Collége	59270	BAILLEUL	03 28 50 32 10	50.73923	2.7310722
59		LILLE AGGLOMERATION	Csub	24 rue du Parc	59561	LA MADELEINE	03 28 38 82 38	50.6510416	3.0672401
59		LILLE AGGLOMERATION	Csub	Rue de l'Hôtel de Ville	59462	LOMME	03 20 00 16 60	50.639811	3.011768
59		LILLE AGGLOMERATION	Csub	89, rue Duquesne et Derain		MARCQ en BAROEUL	03 20 66 20 00	50.6730157	3.0922505
59		LILLE AGGLOMERATION	Csub	Place Van Gogh	59650	VILLENEUVE D'ASCQ	03 20 19 16 66	50.619322	3.132209
59		LILLE AGGLOMERATION	Csub	1, Rue du Docteur Laennec	59139	WATTIGNIES	03 20 62 99 88	50.5902837	3.0460296
59		LILLE AGGLOMERATION	Csub	69, Rue Jules Guesde	59150	HEM	03 28 33 75 53	50.7075075	3.2258463
59		LILLE AGGLOMERATION	Csub	29, Rue Francisco Ferrer	59920	WASQUEHAL	03 20 81 84 30	50.6693485	3.126751
59		LILLE AGGLOMERATION	Csub	21, Rue Saint Joseph	59150	WATTRELOS	03 20 20 98 00	50.7016598	3.2175935
59		LILLE AGGLOMERATION	Csub	13, Avenue du Général Leclerc	59560	COMINES	03 28 38 86 40	44.725071	-84.0339813
59		LILLE AGGLOMERATION	Csub	2, Rue des Arts	59223	RONCQ	03 20 01 06 70	50.7532632	3.122015
59		LILLE AGGLOMERATION	CS	15, Place Victor Hugo	59155	FACHES THUMESNIL	03 20 60 18 18		
59		LILLE AGGLOMERATION	CS	102, Rue Sadi Carnot	59320	HAUBOURDIN	03 20 07 67 77	50.6112869	2.9904753
59		LILLE AGGLOMERATION	CS	7, Place de la République	59260	HELLEMMES	03 20 71 46 30	50.6146346	3.1160925
59		LILLE AGGLOMERATION	CS	29, Place de la Victoire	59130	LAMBERSART	03 20 92 31 31	50.645923	3.023938
59		LILLE AGGLOMERATION	CS	Place François Mitterand - Eurallille	59000	LILLE	03 20 13 33 20	47.28265	-68.1181107
59		LILLE AGGLOMERATION	CS	Avenue du Peuple Belge - UGD	59000	LILLE	03 20 78 33 20	47.28265	-68.1181107
59		LILLE AGGLOMERATION	CS	5, Rue Georges Courteline - Faubourg de Béthune	59000	LILLE	03 20 38 01 04	50.6192182	3.0325752
59		LILLE AGGLOMERATION	CS	109, rue du Faubourg des Postes	59000	LILLE	03 20 16 38 31	50.6118268	3.0462804
59		LILLE AGGLOMERATION	CS	48, Rue de Lannoy - Lille Fives	59000	LILLE	03 20 30 20 35	50.6340064	3.0943264
59		LILLE AGGLOMERATION	CS	5, Place Philippe de Girard	59000	LILLE	03 20 57 41 18	50.6299406	3.0475406
59		LILLE AGGLOMERATION	CS	33, Ave du Peuple Belge - Vieux Lille	59000	LILLE	03 20 51 04 42	50.6447598	3.0609396
59		LILLE AGGLOMERATION	CS	201, Av du Marechal Foch	59120	LOOS	03 20 07 20 55	50.614242	3.0109467
59		LILLE AGGLOMERATION	CS	29, Avenue Robert Schumann	59370	MONS en BAROEUIL	03 20 04 94 10		
59		LILLE AGGLOMERATION	CS	36, Rue Alfred de Musset	59790	RONCHIN	03 20 18 00 55	50.5971638	3.0951857
59		LILLE AGGLOMERATION	CS	3, Rue Roger Brouvy - Résidence Paul Eluard	59113	SECLIN	03 20 90 14 04	50.5492544	3.0299655
59		LILLE AGGLOMERATION	CS	58, Chemin des Crieurs - Quartier la Cousinerie	59650	VILLENEUVE D'ASCQ	03 20 19 11 55	50.6449982	3.1458956
59		LILLE AGGLOMERATION	CS	93, Rue Jean Jaures	59170	CROIX	03 20 66 29 60	50.6771224	3.1529763
59		LILLE AGGLOMERATION	CS	54, Rue Dupuy de Lôme	59100	ROUBAIX	03 20 20 97 50	50.6818819	3.1828509
59		LILLE AGGLOMERATION	CS	18 bis, Rue de Tourcoing	59100	ROUBAIX	03 20 28 42 65	50.7002594	3.1735971
59		LILLE AGGLOMERATION	CS	171, Rue Inkermann - Quartier Epeule	59000	ROUBAIX	03 20 28 67 90	44.2755585	-103.6659164
59		LILLE AGGLOMERATION	CS	178, Rue de Lille	59250	HALLUIN	03 20 01 06 50	50.7783526	3.1246796
59		LILLE AGGLOMERATION	CS	29, Rue Gallieni	59420	MOUVAUX	03 20 01 02 70	50.7007424	3.1416944
59		LILLE AGGLOMERATION	CS	1, Boulevard d'Halluin	59200	TOURCOING	03 20 28 23 03	50.7310242	3.1388433
59		LILLE AGGLOMERATION	CS	33, Rue Monseigneur Leclerc	59200	TOURCOING	03 20 25 16 84	50.7373964	3.1802796
59		LILLE AGGLOMERATION	AN	Métro Place des Buisses	59000	LILLE	03 28 36 52 20	50.637226	3.0707
59		LILLE AGGLOMERATION	AN	Chemin des Barges - Chenil	59000	LILLE	03 20 52 14 20	47.28265	-68.1181107
59		LILLE AGGLOMERATION	AN	83, Rue d'Alger - Chenil	59100	ROUBAIX	03 20 99 27 25	50.6978695	3.1943519
59		LILLE AGGLOMERATION	AN	4400, Route de Quesnoy - Chenil	59236	FRELINGHIEN	03 20 08 95 45		
59		LILLE AGGLOMERATION	AN	393, Rue de Lille	59200	TOURCOING		50.723603	3.147404
59		CAMBRAI	CP	6, Rue de Monseigneur Guerry	59400	CAMBRAI	03 27 72 03 00	35.5508614	-121.0720673
59		DOUAI AGGLOMERATION	CP	150, Rue Saint Sulpice	59500	DOUAI	03 27 92 38 38	50.3765319	3.0852391
59		DOUAI AGGLOMERATION	CD	1, Rue Wambrouck	59580	ANICHE	03 27 71 53 90	50.331247	3.251828
59		DOUAI AGGLOMERATION	CD	6, Rue Gambetta	59490	SOMAIN	03 27 86 91 70	50.3588352	3.2820501
59		DOUAI AGGLOMERATION	CS	13, Rue du Beffroi	59146	SOMAIN PECQUENCOURT	03 27 96 96 68	50.3769193	3.2159095
59		DOUAI AGGLOMERATION	CS	24 - 26, Rue Jean Jacques Rousseau	59950	AUBY	03 27 95 96 00	50.4124148	3.0700457
59		DOUAI AGGLOMERATION	CS	401, Résidence les Marlières	59500	LAMBRES LEZ DOUAI	03 27 91 41 05	50.348534	3.07253
59		DOUAI AGGLOMERATION	CS	23, Rue Jules Guesdes + chenil	59450	SIN LE NOBLE	03 27 88 97 05	50.3643802	3.1114177
59		DOUAI AGGLOMERATION	CS	39, Rue Antoine Coet	59119	WAZIERS	03 27 88 42 50	50.3870232	3.1132034
59		DUNKERQUE AGGLOMERATION	CP	60, Quai des Hollandais	59140	DUNKERQUE	03 28 23 50 50	51.0383268	2.3759894
59		DUNKERQUE AGGLOMERATION	CD	47, Rue Aupick	59820	GRAVELINES	03 28 23 82 82	50.9861857	2.1283522
59		DUNKERQUE AGGLOMERATION	CS	11, Rue Henry Ghesquiere	59210	COUDEKERQUE BRANCHE	03 28 24 92 20	51.018774	2.3828482
59		DUNKERQUE AGGLOMERATION	CS	Rue des Passerelles - Jeu de Mail	59140	DUNKERQUE	03 28 26 43 01	51.0257198	2.3696001
59		DUNKERQUE AGGLOMERATION	CS	Rue Paul Doumer	59240	DUNKERQUE	03 28 51 98 70	51.041483	2.403501
59		DUNKERQUE AGGLOMERATION	CS	Place Carnot	59430	SAINT POL SUR MER	03 28 24 21 33	51.030383	2.352895
59		DUNKERQUE AGGLOMERATION	CS	19, Rue de la Haye	59760	GRANDE SYNTHE	03 28 28 92 50	51.012665	2.3062599
59		DUNKERQUE AGGLOMERATION	CS	Place Louis XIV	59140	PETITE SYNTHE	03 28 60 72 94		
59		DUNKERQUE AGGLOMERATION	AN	Rue de Nancy - Chenil - Stand de Tir	59640	PETITE SYNTHE	03 28 60 77 71		
59		HAZEBROUCK	CP	1, Rue du Commissariat	59190	HAZEBROUCK	03 28 50 15 15	50.721522	2.5409639
59		HAZEBROUCK	AN	Modulaires	59190	HAZEBROUCK		41.7911987	-74.6146011
59		MAUBEUGE AGGLOMERATION	CP	Place du Docteur Forest - Chenil	59600	MAUBEUGE	03 27 69 17 17	50.279769	3.967246
59		MAUBEUGE AGGLOMERATION	CD	Boulevard de Lessines	59460	JEUMONT	03 27 39 95 50	50.297118	4.099187
59		MAUBEUGE AGGLOMERATION	CD	72, Rue Jean Jacques Rousseau	59620	AULNOYE AYMERIES	03 27 63 01 10	50.2010344	3.8458679
59		MAUBEUGE AGGLOMERATION	CS	28, Rue Gambetta	59330	HAUTMONT	03 27 58 07 87	28.5529442	-82.3977127
59		MAUBEUGE AGGLOMERATION	CS	Angle rue du Paradis et rue du Président Kennedy	59720	LOUVROIL	03 27 65 97 01		
59		VALENCIENNES AGGLOMERATION	CP	Avenue des Dentellières	59300	VALENCIENNES	03 27 28 28 28	50.356431	3.520381
59		VALENCIENNES AGGLOMERATION	CD	Rue du 8 Mai 1945	59220	DENAIN	03 27 38 17 17	50.305884	3.399096
59		VALENCIENNES AGGLOMERATION	CD	57, Grand Place	59230	SAINT AMAND LES EAUX	03 27 48 37 40	50.4495354	3.4280092
59		VALENCIENNES AGGLOMERATION	CD	12-14, Rue de la Cavalerie	59163	CONDE SUR L'ESCAUT	03 27 19 33 70	50.4488792	3.5900576
59		VALENCIENNES AGGLOMERATION	CS	125, Rue Jean Jaures	59970	FRESNES SUR L'ESCAUT	03 27 35 96 00	50.4311039	3.5742805
59		VALENCIENNES AGGLOMERATION	CS	597, Rue Victor Hugo	59690	VIEUX CONDE	03 27 40 09 67	50.4624869	3.5689525
59		VALENCIENNES AGGLOMERATION	CS	146, rue Maurice Thorez	59282	DOUCHY LES MINES	03 27 31 14 82	50.301962	3.3953188
59		VALENCIENNES AGGLOMERATION	CS	68, Rue Jean Jaurès	59124	ESCAUDAIN	03 27 44 17 03	50.3379339	3.3448994
59		VALENCIENNES AGGLOMERATION	CS	91, Rue Emile Zola	59156	LOURCHES	03 27 44 00 43	50.3145293	3.3537578
59		VALENCIENNES AGGLOMERATION	CS	Place Jean Jacques Rousseau	59135	WALLERS	03 27 35 65 65	50.373868	3.389561
59		VALENCIENNES AGGLOMERATION	CS	10, Square de la République	59410	ANZIN	03 27 28 08 00	50.3716654	3.500146
59		VALENCIENNES AGGLOMERATION	CS	76, Ave Henri Barbusse	59770	MARLY	03 27 45 65 45	50.351102	3.5408627
59		VALENCIENNES AGGLOMERATION	CS	1, Rue Roger Salengro	59264	ONNAING	03 27 35 23 22	50.3930747	3.6035129
59		VALENCIENNES AGGLOMERATION	CS	Grand Place	59590	RAISMES	03 27 36 91 77	50.392546	3.482823
59		VALENCIENNES AGGLOMERATION	CS	515, Rue des Frères Lumière	59880	SAINT SAULVE	03 27 42 80 95	50.365772	3.55775
59		VALENCIENNES AGGLOMERATION	CS	9, Place de la République + Chenil	59125	TRITH SAINT LEGER	03 27 46 08 02		
59		VALENCIENNES AGGLOMERATION		Stand de tir	59590	RAISMES	03 27 36 56 70	50.412178	3.4888043
59		VALENCIENNES AGGLOMERATION	AN	Place de la Résistance - brigade motocycliste.	59125	TRITH SAINT LEGER	03 27 24 72 64	50.324788	3.483979
59		VALENCIENNES AGGLOMERATION	AN	Rue Derrière la Tour - SDIG	59300	VALENCIENNES		50.356862	3.523881
60	DDSP	BEAUVAIS	CP	3 - 5, Rue de la Banque	60000	BEAUVAIS	03 44 15 36 00	49.4295765	2.0773476
60		BEAUVAIS	CS	19, Place Clémenceau - Centre Ville + SDIG	60000	BEAUVAIS	03 44 15 37 70	49.4293833	2.0808808
60		BEAUVAIS	CS	7, Ave Jean Moulin - ZUP Argentine	60000	BEAUVAIS	03 44 05 05 16	49.4367573	2.0991155
60		COMPIEGNE	CP	41, Rue St Germain	60200	COMPIEGNE	03 44 36 37 37	49.4086933	2.8108656
60		COMPIEGNE	CS	19, Ave Octave Butin	60280	MARGNY LES COMPIEGNE	03 44 83 34 75	49.423591	2.8200777
60		CREIL	HP	8, Rue Jules Michelet + Chenil	60100	CREIL	03 44 61 17 17	49.2613852	2.4758941
60		CREIL	CS	1, Rue Felix Eboué	60100	CREIL	03 44 25 46 40	49.2541605	2.4745247
60		CREIL	CS	127, Rue Jacques Duclos	60160	MONTATAIRE	03 44 25 57 47	49.2576474	2.4350528
60		CREIL	CS	21, Ave Saint Exupéry	60180	NOGENT SUR OISE	03 44 66 40 95	49.2698475	2.4605869
61	DDSP	ALENCON	HP	62, Place Bonet	61014	ALENCON	02 33 82 10 10	48.4322582	0.0928121
61		ARGENTAN	CP	35, Rue Saint Martin	61202	ARGENTAN	02 33 12 14 60	48.7464505	-0.0227961
61		FLERS DE L'ORNE	CP	2, Rue Paul Bert	61100	FLERS DE L'ORNE	02 33 62 30 30		
62	DDSP	ARRAS	AN	5, Ave du Général Leclerc	62000	ARRAS	03 21 60 72 00	48.1377276	0.9801876
62		ARRAS	CP	18, Boulevard de la liberté + chenil	62000	ARRAS	03 21 24 50 17	50.2970313	2.7645368
62		ARRAS	CS	5, Rue Pascal Achicourt	62217	ACHICOURT	03 21 15 29 17	50.2732337	2.7651456
62		ARRAS	CS	3, Rue Racine - Place Verlaine	62000	ARRAS	03 21 15 29 11	50.3019245	2.7466089
62		ARRAS	CS	Place des Ecrins, 1 bis Bât Izoard	62223	SAINT NICOLAS LES ARRAS	03 21 16 14 85	50.305892	2.79392
62		AUCHEL	CP	Rue du Docteur Laennec	62260	AUCHEL	03 21 61 86 17	50.500694	2.474193
62		AUCHEL	CS	Rue Carnot	62190	LILLERS	03 21 02 28 17	50.563393	2.48166
62		AVION	CP	2, Rue de la cité Saint Antoine	62210	AVION	03 21 14 23 17	50.4158795	2.8297876
62		AVION	CS	1, Résidence de Varsovie	62320	ROUVROY	03 21 20 09 16	50.397883	2.901492
62		BERCK SUR MER	CP	Rond Point du Cottage des Dunes	62603	BERCK SUR MER	03 21 09 84 17	50.402347	1.566817
62		BETHUNE	CP	Rue Gaston Defferre	62407	BETHUNE	03 21 54 77 77	50.529439	2.635876
62		BETHUNE	CS	Rue Simone de Beauvoir	62138	AUCHY LES MINES	03 91 82 64 90	50.522205	2.797069
62		BETHUNE	PCPP	46, Boulevard des Etats Unis	62400	BETHUNE	03 21 56 01 31	50.5174595	2.6303458
62		BETHUNE	PCPP	Résidence du Ballon - Bât Van Gogh	62660	BEUVRY	03 21 62 74 17	50.514155	2.680576
62		BOULOGNE SUR MER	CS	Place Vignon - Quartier Chemin Vert	62200	BOULOGNE SUR MER	03 21 31 77 17	50.735464	1.608542
62		BOULOGNE SUR MER	CP	9, Rue Perrochel	62200	BOULOGNE SUR MER	03 21 99 48 48	50.7207383	1.6064064
62		BOULOGNE SUR MER	CS	Rue du Régiment de la Chaudière	62130	OUTREAU	03 21 80 21 17	41.2923508	-89.3688507
62		BOULOGNE SUR MER	CS	349, Route de Saint Omer	62200	SAINT MARTIN LES BOULOGNE	03 21 31 46 56	50.7261541	1.6382597
62		BOULOGNE SUR MER	CS	Rue du Château	62200	WIMEREUX	03 21 99 07 17	50.778565	1.620616
62		BOULOGNE SUR MER	AN	ZI de l'Inquétrie + Chenil	62200	SAINT MARTIN BOULOGNE	03 21 80 29 95	50.729697	1.606212
62		BRUAY LA BUISSIERE	CP	137, Rue du Commandant l'Herminier	62700	BRUAY LA BUISSIERE	03 21 64 53 20		
62		CALAIS	CP	Place de Lorraine	62100	CALAIS	03 21 19 13 17	50.95745	1.855376
62		CALAIS	CS	2, Rue Antoine Bourdel	62100	CALAIS	03 21 97 53 17	50.9502145	1.8908706
62		CALAIS	AN	Avenue du Général Pourailly - Chenil	62137	COULOGNE	03 21 36 02 36	50.925047	1.874293
62		LE TOUQUET PARIS PLAGE	CP	Rue Charles North	62520	LE TOUQUET PARIS PLAGE	03 21 90 81 33	50.522302	1.583689
62		LENS	CP	2, Rue Louis Delluc - Chenil	62300	LENS	03 21 13 50 00	50.4314572	2.8429994
62		LENS	Csub	1 Bis, Rue Pasteur	62220	CARVIN	03 21 79 75 10	50.4896136	2.9553146
62		LENS	Csub	91, Avenue des Fusillés	62110	HENIN BEAUMONT	03 21 13 76 20		
62		LENS	Csub	Rue François Courtin	62800	LIEVIN	03 21 44 51 51	50.423355	2.777315
62		LENS	CS	Rue Mousseron	62160	BULLY LES MINES	03 21 72 01 00	50.449361	2.711662
62		LENS	CS	38, Rue de Fécamp - Grande Résidence - Tour Flaubert	62300	LENS	03 21 28 77 63	50.443106	2.8275204
62		LENS	CS	60, Rue du Lavendin	62430	SALLAUMINES	03 21 67 71 17		
62		LENS	PCPP	Rue Cyprien Quinet	62820	LIBERCOURT	03 21 37 23 46	50.481545	3.012144
62		LENS	PCPP	Rue Pierre Brossolette	62590	OIGNIES	03 21 37 00 88	50.465596	2.996696
62		LENS	PCPP	21, rue Jean Jaures	62880	VENDIN LE VIEIL	03 21 77 37 11	50.4753166	2.8664328
62		MARLES LES MINES	CP	13, Rue Paul Vaillant Couturier	62540	MARLES LES MINES	03 91 80 07 50	50.5075283	2.5143269
62		MARLES LES MINES	CS	7, Place Lannoy	62470	CALONNE RICOUART	03 21 01 75 17		
62		NOEUX LES MINES	CP	411, Route Nationale	62290	NOEUX LES MINES	03 21 61 77 17	50.458662	2.679384
62		NOEUX LES MINES	CS	7, Place Victor Hugo	62620	BARLIN	03 21 25 93 17	35.32481	-94.3003464
62		SAINT OMER	CP	18, Rue des Pipiers	62500	SAINT OMER	03 21 38 61 17	50.7489465	2.261743
63	DDSP	CLERMONT FERRAND	AN	2, Rue Pelissier - Bât P 	63100	CLERMONT FERRAND	04 73 98 42 42	45.7860562	3.1052256
63		CLERMONT FERRAND	HP	2, Rue Pelissier - Bât A	63100	CLERMOND FERRAND	04 73 98 42 42	39.0476189	-84.1521683
63		CLERMONT FERRAND	CS	15, Place Sully	63400	CHAMALIERES	04 73 37 32 19	45.7765762	3.067687
63		CLERMONT FERRAND	CS	9, Rue des Hauts de Chanturgue - Quartier Neyrat	63100	CLERMONT FERRAND	04 73 25 10 23		
63		CLERMONT FERRAND	CS	4, Rue Lagarlaye - Quartier Jaude	63000	CLERMONT FERRAND	04 73 93 37 26	39.0476189	-84.1521683
63		CLERMONT FERRAND	CS	23, Rue des Liondards - Quartier St Jacques	63000	CLERMONT FERRAND	04 73 27 46 87		
63		CLERMONT FERRAND	CS	Place de la Fontaine - Quartier Montferrand	63100	CLERMONT FERRAND	04 73 25 56 51	45.791118	3.113561
63		CLERMONT FERRAND	AN	2, Rue Pelissier - Bât G 	63100	CLERMONT FERRAND	04 73 98 42 42	45.7860562	3.1052256
65		CLERMONT FERRAND	AN	2, Rue Pelissier - Bât R	63100	CLERMONT FERRAND	04 73 98 42 42	45.7860562	3.1052256
63		CLERMONT FERRAND	AN	16, Bd Desaix - Préfecture	63000	CLERMONT FERRAND		39.0476189	-84.1521683
63		CLERMONT FERRAND		Concession logement	63000	CLERMONT FERRAND			
63		CLERMONT FERRAND		Concession logement	63000	CLERMONT FERRAND			
63		CLERMONT FERRAND		Stand de tir	63000	CLERMONT FERRAND			
63		COURNON D'AUVERGNE	CP	26, Avenue de Lempdes	63800	COURNON D'AUVERGNE	04 73 77 52 70	45.7426341	3.2006497
63		COURNON D'AUVERGNE	AN	12, Avenue d'Aubière - Chenil	63800	COURNON D'AUVERGNE	04 73 84 62 09	45.7512935	3.1585194
63		GERZAT	CP	5, Rue Anatole France - Les Bas Charmets	63360	GERZAT	04 73 74 80 00	45.8281857	3.1555894
63		RIOM	CP	20, Avenue Virlogeux	63200	RIOM	04 73 33 43 63	45.8900839	3.1197403
64	DDSP	PAU	HP	5, Rue O'Quin	64000	PAU	05 59 98 22 22	43.3011894	-0.3710911
64		PAU	CS	99, Ave du Loup	64140	PAU	05 59 02 42 60	43.3177909	-0.3516698
64		PAU	AN	Préfecture - SDIG	64000	PAU		43.3214951	-0.3432729
64		BAYONNE	HP	4, Avenue de Marhum	64100	BAYONNE	05 59 46 22 22	43.4901786	-1.4827471
64		BAYONNE	CS	5, Avenue du 8 Mai - Villa Lou Cantaou	64600	ANGLET	05 59 63 84 64	43.4896011	-1.5197445
64		BAYONNE	CS	2,  Place des Gascons	64100	BAYONNE	05 59 55 01 80	43.4990167	-1.4566318
64		BAYONNE	AN	3, Ave Raymond Toulet - SDIG	64600	ANGLET		38.2487488	-111.9871902
64		BIARRITZ	CP	3, Rue Louis Barthou	64200	BIARRITZ	05 59 01 22 22	43.4822892	-1.5580873
64		SAINT JEAN DE LUZ	CP	15, Avenue André Ithurralde	64500	SAINT JEAN DE LUZ	05 59 51 22 22	43.3919609	-1.6542252
64		SAINT JEAN DE LUZ	Csub	1, Rue Joliot Curie	64700	HENDAYE	05 59 51 40 40	43.3517756	-1.7823379
64		SAINT JEAN DE LUZ	PCPP	Boulevard de la Mer - Perspectives Courrèges	64700	HENDAYE	05 59 20 79 69	43.373575	-1.77189
65	DDSP	TARBES	CP	28-30, Rue Georges Clémenceau	65000	TARBES	05 62 44 31 31	43.2335269	0.0766393
65		TARBES	AN	21, Rue Georges Clémenceau	65000	TARBES	05 62 44 31 31	43.2335479	0.076341
65		TARBES	CS	17 bis, rue de la Libération	65000	TARBES	05 62 44 65 12		
65		LOURDES	CP	7, Rue du Baron Duprat	65107	LOURDES	05 62 42 72 72	43.261261	-92.296463
66	DDSP	PERPIGNAN	CP	Avenue de la Grande Bretagne	66020	PERPIGNAN	04 68 35 70 00		
66		PERPIGNAN	CS	Ave du Général de Gaulle	66000	PERPIGNAN	04 68 35 85 60	42.733974	2.935175
66		PERPIGNAN	CS	Bd Foment de la Sardane - Quartier Moulin à Vent	66000	PERPIGNAN	04 68 62 09 13	42.7010689	2.9046948
66		PERPIGNAN	CS	44, Rue Llucia	66000	PERPIGNAN	04 68 66 42 30	42.6970942	2.9019892
66		PERPIGNAN	CS	51, Avenue du Boules	66000	PERPIGNAN	04 68 52 92 40	42.7049421	2.8802075
66		PERPIGNAN	AN	Rue Claude Marty - OMP	66000	PERPIGNAN	04 68 51 32 79	42.699869	2.882589
66		PERPIGNAN	AN	Allée Pierre Marc - Chenil - OMP - BMU	66000	PERPIGNAN	04 68 35 70 43	42.700456	2.882946
66		PERPIGNAN	AN	19, Route de Prades - SDIG	66000	PERPIGNAN			
66		PERPIGNAN	AN	19, Route de Prades - CDSF	66000	PERPIGNAN	04 68 35 70 00		
67	DDSP	STRASBOURG	HP	34, Route de l'Hôpital	67022	STRASBOURG	03 90 23 17 17	48.5726997	7.7503154
67		STRASBOURG	CS	2, Rue du Chêne	67000	HOENEIM	03 88 62 81 30		
67		STRASBOURG	CS	2, Rue des Soeurs	67400	ILLKIRCH GRAFFENSTADEN	03 88 67 50 60	48.5283087	7.7110617
67		STRASBOURG	CS	2 A, Rue des Hirondelles	67380	LINGOSHEIM	03 88 77 55 85	48.5538308	7.6895867
67		STRASBOURG	CS	1, Rue du Général Leclerc	67500	OSTWALD	03 88 55 31 20	48.5434596	7.7105503
67		STRASBOURG	CS	110, Route de Bischviller	67300	SCHILTIGHEIM	03 90 22 28 40	48.6059511	7.7485773
67		STRASBOURG	CS	44, Avenue de la Forêt Noire	67000	STRASBOURG	03 88 61 40 19	48.5844619	7.7696645
67		STRASBOURG	CS	33, Bd Victor Hugo	67000	STRASBOURG	03 90 20 15 65	48.5936702	7.7019474
67		STRASBOURG	CS	4, Rue des Comtes	67000	STRASBOURG	03 88 30 93 70	39.0630608	-83.8034668
67		STRASBOURG	CS	9, Rue de la Papéterie	67000	STRASBOURG	03 88 31 71 00	48.610712	7.7823691
67		STRASBOURG	CS	8, Rue Jean Mermoz	67100	STRASBOURG	03 88 39 41 84	48.5470142	7.7709203
67		STRASBOURG	CS	Place de la Gare	67000	STRASBOURG	03 90 23 14 87	48.584988	7.735224
67		STRASBOURG	CS	33, Rue de Sélestat	67000	STRASBOURG	03 88 84 28 84	48.5657501	7.7629727
67		STRASBOURG	CS	17, Rue Schulmeister	67000	STRASBOURG	03 90 40 25 75	48.5487449	7.7533811
67		STRASBOURG	CS	21, Rue Lavoisier	67000	CRONENBOURG	03 90 20 16 75	48.6036229	7.7179867
67		STRASBOURG	AN	Bât Maryse Batié - Aéroport International - Compagnie Sécurisation		ENTZHEIM			
67		STRASBOURG	CS	34, Ave de Perigueux	67800	BISCHHEIM	03 90 22 69 80	48.6142445	7.7475299
67		STRASBOURG	AN	118, Route de Schirmeck - Chenil	67200	STRASBOURG	03 88 15 38 03	48.5714268	7.7122614
67		STRASBOURG	AN	Route de Brumath - stand de tir.	67000	MUNDOLSHEIM			
67		HAGUENAU	CP	4, Rue des Dominicains	67500	HAGUENEAU	03 88 05 21 00		
67		SELESTAT	CP	8, Ave du Général de Gaulle	67604	SELESTAT	03 88 58 84 22		
68	DDSP	MULHOUSE	HP	6, Rue Coehorn + Chenil	68062	MULHOUSE	03 89 60 82 00		
68		MULHOUSE	CS	2, Rue de Thann - BP Ouest	68200	MULHOUSE - DORNACH	03 89 60 06 75		
68		MULHOUSE	CS	21, Ave  Clémenceau - BP Sud	68200	MULHOUSE	03 89 45 55 39	47.7441562	7.3394424
68		MULHOUSE	CS	17, Rue de Gunsbach - BP Nord	68200	MULHOUSE	03 89 50 70 21	47.7701738	7.3244572
68		MULHOUSE	AN	12 Rue Coehorn - Bât T	68062	MULHOUSE	03 89 60 82 00		
68		MULHOUSE	AN	12 Rue Coehorn - Bât E	68063	MULHOUSE	03 89 60 82 59		
68		MULHOUSE	AN	5, Rue d'Alsace - SDIG	68062	MULHOUSE	03 89 32 95 83		
68		COLMAR	HP	2, Rue de la Cavalerie	68000	COLMAR	03 89 29 47 00	48.0812241	7.3639765
68		COLMAR	CS	23, Rue de Rome	68000	COLMAR	03 89 30 10 15	40.2674103	-75.2546005
68		GUEBWILLER	CP	59, Rue Théodore Deck	68500	GUEBWILLER	03 89 62 23 90	47.9045199	7.2126693
68		SAINT LOUIS	CP	5, Rue du Jura	68300	SAINT LOUIS	03 89 70 99 20	47.5877121	7.57051
68		WITTENHEIM	CP	24 - 26, Rue d'Ensisheim	68270	WITTENHEIM	03 89 62 51 00	47.8105294	7.3397155
69	DDSP	LYON	HP	40, Rue Marius Berliet	69008	LYON	04 78 78 40 40	45.7428998	4.8598657
69		LYON	AN	5, Rue Mouton Duvernet	69008	LYON	04 78 78 40 40	45.75085	4.860807
69		LYON	CD	225, Cours Emile Zola	69100	VILLEURBANNE	04 72 69 10 60	45.7684718	4.8852998
69		LYON	CD	47, Rue de la Charité	69002	LYON	04 78 42 26 56	45.7509247	4.8305789
69		LYON	CD	11, Rue Saint-Jacques - 29 - 31 rue Villeroy	69003	LYON	04 72 82 15 00	45.7570361	4.8441204
69		LYON	Csub	19, Rue Louis Pradel	69001	LYON	04 37 26 25 40	45.7684073	4.8362348
69		LYON	Csub	43, Rue Général Frère	69008	LYON	04 72 78 01 40	45.7342038	4.8725903
69		LYON	Csub	42, Rue Raoul Servant	69007	LYON	04 72 71 57 30	45.7460725	4.8398645
69		LYON	Csub	15, Rue des Anges	69005	LYON	04 72 38 83 50	45.7564695	4.8132915
69		LYON	Csub	29-31, Rue Berjon	69009	LYON	04 72 85 60 70	45.776712	4.7978946
69		LYON	Csub	195, Bld Franklin Roosevelt	69500	BRON	04 72 14 97 40	45.7314358	4.9152328
69		LYON	Csub	1, Place du Docteur Dugoujon	69300	CALUIRE	04 72 27 06 14		
69		LYON	Csub	8, Avenue du Dauphiné	69330	MEYZIEU	04 72 45 12 30	45.7640602	5.0049532
69		LYON	Csub	8, Rue Diderot	69600	OULLINS	04 72 39 03 21	45.7142928	4.8096693
69		LYON	Csub	13, Rue du Docteur Gallavardin	69800	SAINT PRIEST	04 78 20 20 60	45.6933636	4.9376661
69		LYON	Csub	1, Avenue Georges Dimitrov	69120	VAULX EN VELIN	04 37 45 30 80	45.7779932	4.9276814
69		LYON	Csub	5, Avenue Marcel Houêl	69200	VENISSIEUX	04 72 50 04 76	45.6966637	4.8851054
69		LYON		12, Rue de Bottet	69140	RILLIEUX LA PAPE		45.8182259	4.9006834
69		LYON	CS	3, Rue de la Terrasse	69004	LYON	04 72 07 40 50	45.7746188	4.8305652
69		LYON	CS	63, rue Bossuet	69006	LYON		45.7679987	4.8524062
69		LYON		2, Chemin Chancellier		ECULLY		45.7763132	4.7746763
69		LYON	CS	15, Rue Jean et Emile Bertrand	69150	DECINES	04 78 49 25 54	45.7711309	4.9540371
69		LYON	CS	30, Rue Anatole France	69190	SAINT FONS	04 78 70 00 04	45.7109283	4.8531028
69		LYON	PCPP	Gare S.N.C.F de la Part Dieu	69003	LYON	04 72 33 27 03	45.7513809	4.8684111
69		LYON	PCPP	Centre Commercial de la Part-Dieu	69003	LYON	04 78 62 30 37	45.7610512	4.8582702
69		LYON	PCPP	48, Rue Raoul Servant	69007	LYON	04 78 72 24 55	45.7466712	4.8420971
69		LYON	AN	Rue Pierre Cormeille - Préfecture	69003	LYON	04 78 60 24 81	45.76308	4.843941
69		LYON	AN	Rue Servient - Palais de Justice	69003	LYON		45.7513809	4.8684111
69		LYON	AN	 Place Salvador Allendé - Chenil	69190	SAINT FONS	04 78 67 37 67		
69		LYON		Parking	69008	LYON		34.2190094	-90.5410309
69		GIVORS	CP	1, Rue Pierre Semard	69701	GIVORS	04 72 49 26 50	45.5855368	4.7686878
69		VILLEFRANCHE SUR SAONE	CP	38, Rue de la Barmondière	69400	VILLEFRANCHE SUR SAONE	04 74 09 49 29	45.9891993	4.7164855
69		VILLEFRANCHE SUR SAONE	AN	15, Rue Paul Bert - OMP, BADR.	69400	VILLEFRANCHE SUR SAONE			
70	DDSP	VESOUL	CP	Place du 11 eme Chasseurs	70000	VESOUL	03 84 96 34 00	42.0941086	-76.0035172
70		VESOUL	AN	7, Place des Casernes - SDIG	70000	VESOUL	03 84 76 94 94	42.0941086	-76.0035172
70		HERICOURT	CP	Rue André Boulloche	70400	HERICOURT	03 84 36 64 22	47.574633	6.755837
71	DDSP	MACON	HP	36, Rue de Lyon	71000	MACON	03 85 32 63 63	46.2979758	4.8220717
71		MACON	AN	Parc de la Grisière - Chenil	71870	HURIGNY		46.3628006	4.8012381
71		CHALON SUR SAONE	CP	2, Rue Emile Roux	71321	CHALON SUR SAONE	03 85 90 66 00	46.78775	4.8499918
71		CHALON SUR SAONE	CS	16, Rue René Coty	71321	CHALON SUR SAONE	03 85 97 07 90	46.7919852	4.8656559
71		CHALON SUR SAONE	AN	6, rue Omer Lethorey - SDIG	71321	CHALON SUR SAONE			
71		CHALON SUR SAONE	AN	7, Rue Louis Jacques Thénard - Chenil	71321	CHALON SUR SAONE			
71		LE CREUSOT	CP	16, Rue Mamby	71200	LE CREUSOT	03 85 77 05 25	46.8097581	4.4304308
71		LE CREUSOT	AN	2A, Rue des Ursulines - SDIG	71200	MONTCENIS			
71		MONTCEAU LES MINES	CP	8, Rue Barbes 	71000	MONTCEAU LES MINES	03 85 67 41 00		
71		MONTCEAU LES MINES	AN	7, Rue des Champs Seigneurs - Tribunal de police	71000	PARAY LE MONIAL			
72	DDSP	LE MANS	CP	6, Rue Coeffort	72000	LE MANS	02 43 61 68 00	47.995441	0.2022564
72		LE MANS	CS	1, Rue Claude Chappe - LRA	72700	ALLONNES	02 43 47 98 05	47.9695846	0.1545831
72		LE MANS	CS	1, Rue de Monaco	72190	COULAINES	02 43 81 46 11	48.0233806	0.1981965
72		LE MANS	CS	137, Rue des Maillets	72000	LE MANS	02 43 81 57 70	48.0150961	0.211809
72		LE MANS	CS	Place des Sablons	72000	LE MANS	02 43 85 46 45	47.991889	0.224883
72		LE MANS	CS	17, Avenue Georges Durand	72000	LE MANS	02 43 84 26 84	47.9822749	0.211232
72		LE MANS	AN	33, Rue Coeffort - OMP, service de police de proximité.	72000	LE MANS	02 43 16 15 64		
72		LE MANS	AN	11 - 13, Rue du Docteur Leroy  - SDIG 	72000	LE MANS	02 43 52 52 07	48.0028269	0.195947
73	DDSP	CHAMBERY	HP	585, Avenue de la Boisse	73000	CHAMBERY	04 79 62 84 00	45.5755641	5.9159252
73		CHAMBERY	CS	293, Rue du Maconnais	73000	CHAMBERY LE HAUT	04 79 72 36 17	45.591912	5.9173357
73		CHAMBERY	PCPP	4, Rue de l'Epine	73160	COGNIN	04 79 69 18 73	45.56197	5.89226
73		CHAMBERY	AN	Autoport du Freney - Centre coopération policière et douanière - SIG	73100	MODANE		45.2008018	6.6765399
73		CHAMBERY	AN	Chemin de la Balme - Chenil	73000	CHAMBERY	04 79 62 63 82		
73		AIX LES BAINS	CP	9, Avenue Victoria - BP 450	73100	AIX LES BAINS	04 79 35 00 25	45.6898749	5.9113151
73		ALBERTVILLE	CP	1, Rue Jacques Porraz	73200	ALBERTVILLE	04 79 32 43 57	45.6746106	6.3916623
74	DDSP	ANNECY	HP	17, Rue des Marquisats	74000	ANNECY	04 50 52 32 00	45.8970002	6.1315193
74		ANNECY	CS	14, Rue de l'Harmonie	74000	CRAN GEVRIER	04 50 08 15 76	31.4285202	-102.5155563
74		ANNECY	PCPP	2, Rue Louis Armand	74000	ANNECY	04 50 66 70 90	45.9175059	6.1318544
74		ANNECY	AN	18, Chemin des Fins Sud - SDIG	74000	ANNECY		45.9103624	6.1231285
74		ANNECY	AN	Zone Industrielle, Route de Vovray - Chenil	74000	ANNECY	04 50 45 29 26		
74		ANNEMASSE	CP	42, Rue du Chablais	74100	ANNEMASSE	04 50 95 44 50	46.1979504	6.2390048
74		ANNEMASSE	AN	1, Rue du Beulet - SDIG	74000	ANNEMASSE			
74		LEMAN	CP	5, Rue de l'Hôtel Dieu	74200	THONON LES BAINS	04 50 71 04 61	46.370374	6.4789291
74		LEMAN	AN	19, Rue de l'Hôtel Dieu - SDIG	74200	THONON LES BAINS		46.3683765	6.4785762
76	DDSP	ROUEN	HP	9, Rue Brisout de Barneville	76000	ROUEN	02 32 81 25 00	49.434519	1.0807197
76		ROUEN	Csub	1-3, Rue Pierre Curie	76500	ELBEUF	02 35 81 76 99	49.2991223	1.0225649
76		ROUEN	CS	40, Rue de Verdun	76420	BIHOREL	02 35 60 23 11	49.4608679	1.1252633
76		ROUEN	CS	5, Rue Jules Ferry 	76240	BONSECOURS	02 35 80 24 85	49.4235538	1.126671
76		ROUEN	AN	5, Rue Jules Ferry + Chenil	76240	BONSECOURS	02 35 80 24 85	49.4235538	1.126671
76		ROUEN	CS	Place d'Armes - Plate forme Citoyenne	76380	CANTELEU	02 35 36 09 91	49.448744	1.034761
76		ROUEN	CS	Rue du 19 Mars 1962	76160	DARNETAL	02 32 12 30 70	49.439185	1.14563
76		ROUEN	CS	2, Place de la République	760000	GRAND COURONNE	02 32 11 66 85	49.3576106	1.0094225
76		ROUEN	CS	Boulevard Maurice Ravel	76120	GRAND QUEVILLY	02 35 69 69 78	49.40844	1.046178
76		ROUEN	CS	Pace Saint Just	76150	MAROMME	02 35 74 28 06	49.48946	1.0023805
76		ROUEN	CS	57, Rue Louis Pasteur	76130	MONT SAINT AIGNAN	02 35 71 80 21	49.4597249	1.0800538
76		ROUEN	CS	Rue Jules Verne	76350	OISSEL	02 35 64 70 62	49.340687	1.099737
76		ROUEN	CS	88, Rue Jacquard	76140	PETIT QUEVILLY	02 35 72 29 56	49.4300128	1.06247
76		ROUEN	CS	44, Boulevard de l'Yser - Beauvoisine	76000	ROUEN	02 35 07 85 70	49.448598	1.0997164
76		ROUEN	CS	Place Alfred de Musset - Les Sapins	76000	ROUEN	02 35 60 04 05	49.461549	1.133271
76		ROUEN	CS	29 - 31, Rue Olivier Goubert	76800	SAINT ETIENNE DU ROUVRAY	02 35 34 55 37	49.3809334	1.1048894
76		ROUEN	CS	Immeuble Tourmalet - Château Blanc	76800	SAINT ETIENNE DU ROUVRAY	02 32 66 70 96	49.393959	1.069789
76		ROUEN	CS	230, Rue Garibaldi	76300	SOTTEVILLE LES ROUEN	02 35 72 28 22		
76		ROUEN	AN	20, rue Brisout de Barneville	76000	ROUEN	02 32 81 25 25	49.4344452	1.0809597
76		ROUEN	AN	Rue Barbey d'Aurelly - parking.	76000	ROUEN		49.433785	1.079975
76		BOLBEC LILLEBONNE	CP	65, Rue Thiers	76210	BOLBEC	02 32 84 56 60	49.5691738	0.4713401
76		BOLBEC LILLEBONNE	CS	23, Rue Pigoreau	76170	LILLEBONNE	02 35 38 34 11	49.5208794	0.5351704
76		DIEPPE	CP	Boulevard Georges Clémenceau	76200	DIEPPE	02 32 14 49 00	49.917231	1.080532
76		FECAMP	CP	13 Bis, Rue de l'Inondation	76400	FECAMP	02 35 10 45 00	49.7563665	0.3801728
76		LE HAVRE	HP	196, Bd de Strasbourg	76600	LE HAVRE	02 32 74 37 00	49.492389	0.1203185
76		LE HAVRE	CS	22, Rue Jehan de Grouchy	76700	HARFLEUR	02 35 45 42 07	49.5054549	0.1994757
76		LE HAVRE	CS	66, rue Ferrer	76600	LE HAVRE	02 35 24 83 16	49.4900394	0.1415053
76		LE HAVRE	CS	1, Rue Miroglio	76620	MONT GAILLARD	02 35 54 66 10	47.0334816	-109.6450806
76		LE HAVRE	CS	25, Rue de l'Alma - Les Gobelins	76600	LE HAVRE	02 35 42 22 95	49.4969433	0.1007711
76		LE HAVRE	CS	150, Avenue du 8 Mai 1945	76610	CAUVRIAUVILLE	02 35 47 25 40		
76		LE HAVRE	CS	10, Place du Commandant O'Reilly	76290	MONTIVILLIERS	02 35 55 78 11	49.5455752	0.1877841
76		LE HAVRE	CS	Aéroport d'Octeville	76700	OCTEVILLE		49.5313988	0.09271
76		LE HAVRE	AN	62, rue des Moteaux - chenil	76000	LE HAVRE			
77	DDSP	MELUN VAL DE SEINE	HP	51, Rue du Général de Gaulle	77000	MELUN	01 60 56 67 77	48.5428718	2.6607015
77		MELUN VAL DE SEINE	Csub	462, Avenue du Lys	77190	DAMMARIE LES LYS	01 64 79 41 00	48.5182559	2.6285383
77		MELUN VAL DE SEINE	CS	153, Allée de la Gare	77350	LE MEE SUR SEINE	01 60 68 69 11	48.541238	2.6257866
77		MELUN VAL DE SEINE	PCPP	70, Avenue de Fontainebleau	77310	SAINT FARGEAU PONTHIERRY	01 69 68 00 00	48.5307706	2.5422551
77		MELUN VAL DE SEINE	AN	90, Rue Pasteur - SOP	77000	VAUX LE PENIL			
77		MELUN VAL DE SEINE	AN	34, Quai Pasteur - SD	77000	MELUN	01 60 56 58 81	48.5383884	2.6556989
77		MELUN VAL DE SEINE	AN	1, Quai Maréchal Foch - Sûreté Départementale	77000	MELUN	 01 60 56 94 70	48.537139	2.6610115
77		CHELLES	CP	2, Avenue de Claye	77505	CHELLES	01 60 93 20 00	48.8995356	2.6142613
77		CHESSY	HP	Rue du Grand Secours	77700	CHESSY	01 60 43 63 00	48.861042	2.78624
77		COULOMMIERS	CP	19, Rue du Palais de Justice	77120	COULOMMIERS	01 64 75 63 90	48.813384	3.0866494
77		FONTAINEBLEAU	CP	11 bis, Place de la République	77301	FONTAINEBLEAU	01 60 71 58 00	29.95508	-90.1168213
77		FONTAINEBLEAU	AN	Base de Loisirs de l'UCPA - Bde Equestre	77590	BOIS LE ROI			
77		LAGNY SUR MARNE	CP	9, Allée Vieille et Gentil	77400	LAGNY SUR MARNE	01 64 12 68 68	48.8761062	2.7047706
77		LAGNY SUR MARNE	PCPP	Rue Jean Jaures	77164	FERRIERES	01 64 76 41 88	48.821193	2.705456
77		MEAUX	HP	46, Avenue Salvador Allende - Secteur Centre	77100	MEAUX	01 60 23 32 17	48.9560317	2.8888048
77		MEAUX	CS	1, Rue Chappe - Quartier Beauval	77100	MEAUX	01 64 33 21 17	30.0288696	-92.1830292
77		MEAUX	AN	Avenue des Sablons bouillants - Unités Dept Nord	77100	MEAUX			
77		MITRY MORY	CP	33, Rue Octave Mirbeau	77290	MITRY MORY	01 60 21 41 00	48.9597686	2.6013908
77		MOISSY CRAMAYEL SENART	CP	892, Avenue Jean Jaurès	77550	MOISSY CRAMAYEL	01 64 13 50 00	48.6274082	2.5737553
77		MOISSY CRAMAYEL SENART	Csub	2, Place du 19 Mars 1962	77000	SAVIGNY LE TEMPLE	01 64 19 24 00		
77		MOISSY CRAMAYEL SENART	CS	2, Boulevard Jean Jaurès	77170	BRIE COMTE ROBERT	01 64 05 75 15	48.6931494	2.6089098
77		MOISSY CRAMAYEL SENART	CS	Rue Pablo Picasso	77550	COMBS LA VILLE	01 60 34 27 30	48.8123665	2.3457201
77		MOISSY CRAMAYEL SENART	AN	La Butte d'Arvigny - Chenil	77550	MOISSY CRAMAYEL			
77		MONTEREAU FAULT YONNE	CP	5, Ave du Maréchal Leclerc	77130	MONTEREAU	01 60 56 68 59	48.3802365	2.954987
77		MONTEREAU FAULT YONNE	CS	9, Rue Fleur Begne	77130	SURVILLE	01 60 96 18 08	41.5517998	-79.8361282
77		MONTEREAU FAULT YONNE		Terrasse d'Alembert - ZUP de Surville - Stand de Tir	77	SURVILLE			
77		MORET SUR LOING	CP	5, Avenue Jean Jaures	77250	MORET SUR LOING	01 64 70 56 36	48.3745088	2.8113647
77		NEMOURS	CP	1, Avenue du Général de Gaulle	77140	NEMOURS	01 64 78 50 20	48.2674434	2.7036226
77		NOISIEL	CP	Cours du Luzard	77186	NOISIEL	01 64 11 28 28	48.846915	2.616549
77		NOISIEL	CS	Rue Flandres Dunkerque	77420	CHAMPS SUR MARNE	01 64 68 07 53	48.849704	2.58242
77		NOISIEL	CS	27, Grande Allée des Charmilles	77185	LOGNES	01 64 11 07 68	48.8354565	2.6364306
77		NOISIEL	CS	33, Rue de Paris	77200	TORCY	01 60 05 45 38	48.8508099	2.6529764
77		PONTAULT COMBAULT	CP	162, Avenue de la République	77340	PONTAULT COMBAULT	01 64 43 65 65	48.7989003	2.6053011
77		PONTAULT COMBAULT	CS	Rue Jean Mermoz	77330	OZOIR LA FERRIERE	01 60 18 52 90		
77		PONTAULT COMBAULT	CS	Rue de la Pompe Quartier des Hantes	77340	PONTAULT COMBAULT	01 60 18 18 40	48.78098	2.5961466
77		PONTAULT COMBAULT	CS	47, Rue Pasteur + SOP + bedChenil	77680	ROISSY EN BRIE	01 60 28 10 05		
77		PROVINS	CP	Place du 29ème Dragon	77160	PROVINS	01 64 08 99 90	48.564905	3.300464
77		PROVINS		Stand de tir	77160	PROVINS		48.5851555	3.243727
77		VILLEPARISIS	CP	48, Avenue du Général de Gaulle	77270	VILLEPARISIS	01 60 21 41 20	48.9421747	2.6119356
78	DDSP	VERSAILLES	AN	105, rue des Prés aux Bois	78100	VIROFLAY	01 39 07 17 17	48.8056254	2.1650145
78		VERSAILLES	HP	19, Avenue de Paris	78000	VERSAILLES	01 39 24 70 00	48.8014358	2.1343356
78		VERSAILLES	CS	88, Avenue de la Bonne Aventure	78000	VERSAILLES	01 39 24 35 66	48.8067412	2.1537656
78		VERSAILLES	CS	8, Ave du docteur Schweitzer + GIR	78150	LE CHESNAY	01 39 23 21 30	48.8259566	2.1215898
78		VERSAILLES	AN	Place André Mignot - UDGT	78000	VERSAILLES	01 39 07 39 01	48.802753	2.131346
78		VERSAILLES	AN	168, Route de Versailles - SGAP SOP	78000	VERSAILLES	01 39 23 80 00		
78		VERSAILLES	AN	223, Route de Versailles - CDSF - Chenil	78000	VERSAILLES	01 39 23 80 50		
78		VERSAILLES	AN	4, rue des 40 Arpents - Sûreté Départementale - SDIG	78100	VIROFLAY	01 39 07 42 00		
78		CONFLANS SAINTE HONORINE	CP	1, Square de Ramsgate	78702	CONFLANS SAINTE HONORINE	01 34 90 47 57		
78		CONFLANS SAINTE HONORINE	CS	52-54, Avenue Lénine	78260	ACHERES	01 39 11 02 25	48.9602119	2.0630303
78		CONFLANS SAINTE HONORINE	CS	2, Place des Pierreuses	78570	CHANTELOUP LES VIGNES	01 39 74 07 11	48.972282	2.0320697
78		ELANCOURT	CP	1, Rue du Théâtre	78990	ELANCOURT	01 30 69 64 00	48.7656874	1.9488287
78		FONTENAY LE FLEURY	CP	3, Ave Jean Lurçat	78120	FONTENAY LE FLEURY	01 30 14 63 30	48.8110489	2.0472658
78		GUYANCOURT	CP	1, Rue de la Division Leclerc	78280	GUYANCOURT	01 30 48 26 70	48.7860923	2.0510732
78		HOUILLES	CP	80, rue Hoche	78800	HOUILLES	01 61 04 76 00	48.925802	2.1859149
78		LA CELLE SAINT CLOUD	CP	8, Avenue Charles de Gaulle	78170	LA CELLE SAINT CLOUD	01 39 69 82 37	48.8484311	2.1370741
78		LE VESINET	CP	32, Boulevard Carnot	78110	LE VESINET	01 30 15 76 60	48.8923654	2.1435839
78		LES MUREAUX	CP	26, Avenue Felix Faure	78130	LES MUREAUX	01 34 92 49 00	48.9975364	1.9112888
78		LES MUREAUX	CS	8, Route des Quarante Sous	78410	AUBERGENVILLE	01 30 95 17 50	48.9618272	1.8534211
78		LES MUREAUX	CS	10, Rue des Ecoles	78250	MEULAN	01 34 92 53 20	49.0052247	1.9102907
78		LES MUREAUX	AN	88, Ave Aristide Briand (Bde des Mineurs)	78130	LES MUREAUX	01 30 22 90 70	48.985866	1.9114847
78		MAISONS LAFFITTE	CP	10, Rue Jean Mermoz	78600	MAISONS LAFFITTE	01 34 93 17 17	48.9463556	2.1449149
78		MANTES LA JOLIE	CP	44-46, Rue Pierre Semard	78200	MANTES LA JOLIE	01 30 94 82 10	48.9909755	1.7003014
78		MANTES LA JOLIE	CS	10, Rue Lafarge  + Compagnie de Sécurisation	78320	LIMAY	01 34 78 29 42	40.742691	-84.1072922
78		MANTES LA JOLIE	CS	Rue Pierre Ronsard - Val Fourré	78200	MANTES LA JOLIE	01 30 94 55 41	48.999431	1.684215
78		MANTES LA JOLIE	CS	99, Route de Houdan	78200	MANTES LA VILLE	01 30 92 36 65	48.9751956	1.712837
78		MARLY LE ROI	CP	1 Bis, Rue de Port Marly	78160	MARLY LE ROI	01 30 08 60 20	48.8819138	2.0797735
78		PLAISIR	CP	889, Ave François Mitterand	78000	PLAISIR	01 30 07 71 30	48.8187549	1.9622263
78		POISSY	CP	16, Boulevard Louis Lemelle	78300	POISSY	01 39 22 27 27	48.926695	2.043508
78		POISSY	CS	1, Ave de Triel	78540	VERNOUILLET	01 30 06 58 10	48.9768523	1.9828954
78		POISSY	AN	Centre équestre du Val de Seine, Chemin du Rouillard	78480	VERNEUIL SUR SEINE	01 30 61 03 56	48.995429	1.96127
78		RAMBOUILLET	CP	4, Rue Pasteur	78320	RAMBOUILLET	01 30 46 27 54	48.6484505	1.8236676
78		SAINT GERMAIN EN LAYE	CP	19, Rue de Pontoise	78100	SAINT GERMAIN EN LAYE	01 39 10 91 00	48.8998407	2.0935178
78		SAINT GERMAIN EN LAYE	CS	1, Place de la Résistance	78230	LE PECQ	01 30 87		
78		SAINT GERMAIN EN LAYE	AN	103, Rue Péreire - SDIG et Brigade des Mineurs	78100	SAINT GERMAIN EN LAYE	01 39 04 20 30		
78		SARTROUVILLE	CP	36, Rue Louise Michel	78500	SARTROUVILLE	01 30 86 56 56	48.9376491	2.1609753
78		TRAPPES	CP	Place des Merisiers	78190	TRAPPES	01 30 50 72 00	48.776338	1.985199
78		VELIZY VILLACOUBLAY	CP	25, Avenue Robert Wagner	78140	VELIZY VILLACOUBLAY	01 34 65 79 00	48.7828575	2.1752742
79	DDSP	NIORT	CP	2, Rue de la Préfecture	79000	NIORT	05 49 28 72 00	46.3243702	-0.4650709
79		NIORT	CS	55, Rue des Combes	79000	CHAURAY	05 49 73 54 20	46.3564885	-0.379862
79		NIORT	CS	10 Bis, Rue Jules Siegfried	79000	NIORT	05 49 79 04 00	46.315682	-0.4810966
79		NIORT	AN	3, Rue Saint Gaudens - AN DDSP	79000	NIORT			
79		THOUARS	CP	81, Rue Camille Pelletan	79100	THOUARS	05 49 66 02 00	46.9831208	-0.2223899
80	DDSP	AMIENS	HP	1, Rue du Marché Lanselles	80000	AMIENS	03 22 71 53 00	49.8953761	2.2975883
80		AMIENS	CS	250, Chaussée Jules Ferry - Quartier Ferry - Secteur Est	80000	AMIENS	03 22 50 22 90	49.8963318	2.2796662
80		AMIENS	CS	Place de Bourgogne - Quartier Etouvier - Secteur Ouest	80000	AMIENS	03 22 69 24 70		
80		AMIENS	CS	Place Alphonse Fiquet - Secteur Centre	80000	AMIENS	03 22 22 3190	49.890348	2.306958
80		AMIENS	CS	5, Rue G.Guynemer - Quartier Pigeonnier - Secteur Nord	80000	AMIENS	03 22 66 34 00		
80		AMIENS	CS	24, Route de Normandie	80480	SALOUEL	03 22 33 24 40	49.8676448	2.2344316
80		AMIENS	AN	25, Rue Vanmarcke - OMP - BADR	80000	AMIENS	03 22 22 46 20		
80		AMIENS	PCPP	Rue de la République - Préfecture	80000	AMIENS	03 22 35 37 37	49.8915	2.296689
80		AMIENS	AN	35, Mail Albert 1er - SDIG	80000	AMIENS		49.8889723	2.2979656
80		AMIENS	AN	6, Rue d'Alloville - Chenil	80000	AMIENS	03 22 52 79 87	49.9117586	2.316497
80		ABBEVILLE	CP	36, Rue Boucher de Perthes	80100	ABBEVILLE	03 22 25 28 20	50.105851	1.8358419
81	DDSP	ALBI	HP	5, Ave De Lattre de Tassigny	81000	ALBI	05 63 26 28 00	39.0242996	16.5977001
81		ALBI	CS	2, Rue du Maréchal Brune "Quartier Cantepau"	81000	ALBI	05 63 38 58 80	43.9346337	2.1466011
81		ALBI	PCPP	Place de la Mairie	81160	SAINT JUERY	05 63 55 10 14	44.1560783	2.3318901
81		CARMAUX	CP	29 Bis, Rue Ferrer	81400	CARMAUX	05 63 80 23 80	44.0518901	2.1539131
81		CASTRES	CP	Avenue Charles de Gaulle	81305	CASTRES	05 63 62 01 20	43.601951	2.250497
81		CASTRES	PCPP	9, Rue Jean de la Fontaine	81305	CASTRES	05 63 51 48 70	43.595129	2.254002
81		GRAULHET	CP	10, Avenue Gambetta	81300	GRAULHET	05 63 42 82 00	43.7608506	1.9892968
81		MAZAMET	CP	Rue Jean Assemat - BP.544	81208	MAZAMET	05 63 97 74 10	40.1918907	-88.4071884
82	DDSP	MONTAUBAN	CP	50 - 70, Bd Alsace Lorraine	82000	MONTAUBAN	05 63 21 54 00	44.0189341	1.3603162
82		MONTAUBAN	AN	156, Rue de Pater (SDIG et RI)	82000	MONTAUBAN	05 63 92 79 80	44.0319864	1.3709345
82		MONTAUBAN	AN	Chemin de Tauge - Chenil 	82000	MONTAUBAN		44.04525	1.403929
82		CASTELSARRASIN	CP	6, Bd du 4 Septembre	82100	CASTELSARRASIN	05 63 32 71 50	44.0402567	1.1079389
83	DDSP	TOULON	HP	1, Rue du Commissaire Morandin	83097	TOULON	04 98 03 53 00	43.1253722	5.9277198
83		TOULON	Csub	Avenue Jacques Duclos	83130	LA GARDE	04 94 75 88 88 	43.120295	6.010565
83		TOULON	CS	Immeuble la Colombe - Rue Henri Poincaré - La Rode	83097	TOULON	04 98 03 24 00	43.1278	5.91607
83		TOULON	CS	30, Ave du Char de Verdun	83160	LA VALETTE DU VAR	04 94 20 94 25	43.1375465	5.9826256
83		TOULON	CS	110, Rue Philippe de Hautecloque	83190	OLLIOULES	04 98 00 29 90	43.137957	5.847674
83		TOULON	CS	Rue Marcel Castié - Résidence Sainte Catherine	83100	SAINT JEAN DU VAR	04 98 00 43 05	43.1248498	5.9443851
83		TOULON	CS	Ave Albert Camus - Quartier Beaucaire	83000	TOULON	04 94 24 70 10	41.0941811	-89.8704834
83		TOULON	CS	100, Rue du jeu de Paume - Pont du Las	83000	TOULON	04 94 24 35 91	43.1290788	5.9141207
83		TOULON	AN	1483, Ave Aristide Briand - Chenil	83000	TOULON	04 98 03 53 97	41.0941811	-89.8704834
83		TOULON	AN	155, Ave Franklin Roosevelt - Immeuble le Cygne - Syndicat - Service Médical	83000	TOULON	04 98 00 94 60	43.1201826	5.9394701
83		DRAGUIGNAN	CP	22, Rue Olivier Descamps	83300	DRAGUIGNAN	04 94 39 44 00		
83		FREJUS	CP	Rue de Triberg	83600	FREJUS	04 94 51 90 00	43.429199	6.747105
83		FREJUS	CS	161, Rue de l'Amiral Baux	83700	SAINT RAPHAEL	04 94 51 90 00		
83		HYERES	CP	Chemin de la Demi Lune - Lieu dit du Vieux Chemin de Toulon	83400	HYERES	04 94 00 73 89	43.123041	6.101234
83		LA SEYNE SUR MER	CP	Avenue du Maréchal Juin, Chemin Santéri	83500	LA SEYNE SUR MER	04 98 00 84 00	30.9075546	-91.8198318
83		LA SEYNE SUR MER	CS	Place des Résistants - Mairie de Saint Mandrier 	83430	SAINT MANDRIER	04 94 63 98 69		
83		SANARY	CP	9, Rue Gaillard	83110	SANARY	04 94 88 53 30	43.1189588	5.8013848
83		SANARY	CS	Ave du 8 Mai 1945	83140	SIX FOURS LES PLAGES	04 94 10 14 50	43.094699	5.838474
84	DDSP	AVIGNON	HP	14, Bd Saint Roch + Chenil	84000	AVIGNON	04 32 40 55 55	43.9430108	4.8005757
84		AVIGNON	CS	Rue du Bout de la Ville	30400	VILLENEUVE LES AVIGNON	04 90 15 12 00	43.967561	4.794681
84		AVIGNON	CS	6, Rue Perrin Morel	84140	AVIGNON	04 90 13 31 80 	43.9302733	4.824345
84		AVIGNON	CS	Square des cigales	84140	MONTFAVET	04 90 16 81 00	43.935211	4.872935
84		AVIGNON		Concession logement	30400	VILLENEUVE LES AVIGNON		43.976646	4.792128
84		CARPENTRAS	CP	Boulevard Albin Durand	84200	CARPENTRAS	04 90 67 62 00	44.052805	5.04609
84		CARPENTRAS	CS	Place des Droits de l'Homme	84170	MONTEUX	04 90 61 15 70	44.034241	4.995035
84		CAVAILLON	CP	33, Place du Clos	84300	CAVAILLON	04 90 78 58 00	43.8345545	5.036155
84		ORANGE	CP	445, Avenue Charles de Gaulle	84100	ORANGE	04 90 11 33 30	44.1362041	4.7999679
84		PERTUIS	CP	188, Cours de la République	84120	PERTUIS	04 90 09 30 30	43.6918894	5.5006847
85	DDSP	LA ROCHE SUR YON	HP	3, Rue Dellile	85000	LA ROCHE SUR YON	02 51 45 16 00	46.6680658	-1.4260849
85		LA ROCHE SUR YON	CS	Place des Eraudières	85000	LA ROCHE SUR YON	02 51 40 86 72	46.7411499	-1.426015
85		LA ROCHE SUR YON	CS	Place des Victoires - Centre Commercial  La Garenne	85000	LA ROCHE SUR YON	02 51 06 92 20	46.68002	-1.424307
85		LES SABLES D'OLONNE	CP	Rue de Verdun	85100	LES SABLES D'OLONNE	02 51 23 73 00	46.496913	-1.777308
86	DDSP	POITIERS	HP	38, Rue de la Marne	86000	POITIERS	05 49 60 60 00	46.5819508	0.3382614
86		POITIERS	CS	39, Rue Rique Avoine	86000	POITIERS	05 49 46 88 18	46.591944	0.326955
86		POITIERS	CS	Place de Coïmbra	86000	POITIERS	05 49 38 31 77	46.588734	0.360379
86		POITIERS	CS	2, Place des Trois Cités	86000	POITIERS	05 49 52 26 82	46.5674892	0.3434484
86		POITIERS	AN	Caserne Gendarmerie - Chenil	86000	POITIERS		39.5953598	-75.4410706
86		CHATELLERAULT	CP	52, Rue Hilaire Gilbert	86100	CHATELLERAULT	05 49 20 05 49	46.8174166	0.5472109
86		CHATELLERAULT	AN	2, Rue Choisnin - SDIG	86100	CHATELLERAULT		46.8166351	0.5481147
87	DDSP	LIMOGES	HP	84, Rue Emile Labussière	87000	LIMOGES	05 55 14 30 00	45.8441289	1.2526772
87		LIMOGES	CS	1, Allée Georges Seurat	87000	LIMOGES	05 55 04 16 57	45.8555308	1.2696263
87		LIMOGES	CS	14 bis, Rue René Coty	87000	LIMOGES	05 55 49 17 25	18.0781898	-65.8940964
87		LIMOGES	CS	24, Allée Fabre d'Eglantine - ZAC de Beaubreuil	87280	LIMOGES	05 55 05 18 21	45.8776758	1.2987595
87		LIMOGES	AN	Allée Loewy - Chenil	87000	LIMOGES	05 55 35 35 20	45.859208	1.291311
87		LIMOGES	CS	16, Ave Sadi Carnot	87350	PANAZOL	05 55 09 73 68	45.867891	1.326776
88	DDSP	EPINAL	CP	2, Place Clémenceau	88000	EPINAL	03 29 69 17 17	48.1784772	6.4469057
88		EPINAL	CS	4, Avenue des Villes de France	88000	EPINAL	03 29 81 33 55	48.18571	6.4622762
88		REMIREMONT	CP	12, Place Henri Utard	88204	REMIREMONT	03 29 26 17 17	48.0157671	6.5903875
88		SAINT DIE DES VOSGES	CP	8, Rue de la Madeleine	88100	SAINT DIE DES VOSGES	03 29 55 17 77	48.2875022	6.9400961
89	DDSP	AUXERRE	CP	32, Boulevard Vaulabelle	89010	AUXERRE	03 86 51 85 00	47.7933705	3.5779756
89		AUXERRE	PCPP	Zup Sainte Genevieve	89010	AUXERRE		47.7929001	3.5818501
89		AUXERRE	AN	9, Rue Bugeaud - SDIG - RI	89000	AUXERRE		47.7979267	3.5633903
89		SENS	CP	36, Boulevard Maréchal Foch	89100	SENS	03 86 65 86 80	48.1946904	3.2985075
90	DDSP	BELFORT	HP	1 et 3,  Rue du Manege	90000	BELFORT	03 84 58 50 00	47.6392886	6.8622818
90		BELFORT	CS	Rue de Stockholm - Quartier Résidences	90000	BELFORT	03 84 90 44 35	43.9287109	-75.3322906
90		BELFORT	AN	Faubourg de Brisach - Chenil	90000	BELFORT	x	47.643546	6.87461
91	DDSP	EVRY	HP	60, Boulevard de France	91012	EVRY	01 60 76 70 00		
91		EVRY	CS	7, Place Alphonse Daudet	91130	RIS ORANGIS	01 69 06 33 34	48.6580203	2.4103949
91		EVRY	PCPP	8, Rue du Marquis de Raies - Quartier du Canal	91000	COURCOURONNES	01 69 87 72 06	48.629922	2.4129299
91		EVRY	AN	Rue Emile Biort - Chenil	91000	EVRY	01 60 86 52 01		
91		EVRY	AN	3 bis, Rue Jean Mermoz - annexe DDSP - Bât Saint Guénault - SOP, sûreté départementale.	91080	COURCOURONNES	01 69 13 63 10		
91		ARPAJON	CP	10, Rue du Docteur Louis Babin	91291	ARPAJON	01 69 26 19 70	33.8807106	-108.5401077
91		ARPAJON	CS	3, Avenue Georges Guynemer	91290	BRETIGNY SUR ORGE	01 60 85 29 40	48.6063883	2.3075051
91		ARPAJON	CS	Place de l' Hôtel de Ville	91310	MONTLHERY	01 64 49 53 70	48.6474991	2.2753201
91		ATHIS MONS	CP	21, Rue Jean Baptiste de la Salle	91200	ATHIS MONS	01 69 84 23 70	48.7082615	2.3825868
91		BRUNOY	CP	4, Ave Charles de Gaulle	91805	BRUNOY	01 60 47 91 50	41.2855797	-96.9584885
91		CORBEIL	CP	31, Allée Aristide Briand	91100	CORBEIL	01 69 22 18 10	48.6099363	2.4752739
91		DRAVEIL	CP	124, Ave du Général de Gaulle	91210	DRAVEIL	01 69 73 11 11	48.6812014	2.3793191
91		DRAVEIL	AN	Base de Loisirs "Le Port aux Cerises" - Bde Equestre	91210	DRAVEIL	01 69 83 14 58	48.6777458	2.4249229
91		ETAMPES	CP	7, Avenue de Paris	91150	ETAMPES	01 69 16 13 50	48.4374695	2.1640719
91		ETAMPES	AN	Sous-Préfecture - SDIG	91150	ETAMPES		48.389904	2.1839371
91		JUVISY SUR ORGE	CP	Place du Maréchal Leclerc	91260	JUVISY SUR ORGE	01 69 84 30 30	48.6914	2.377582
91		JUVISY SUR ORGE	Csub	Rue Saint Exupéry	91350	GRIGNY	01 69 02 42 22	48.652317	2.392729
91		LONGJUMEAU	CP	10, Rue des Ecoles	91160	LONGJUMEAU	01 69 73 23 70	48.6956171	2.2965054
91		MASSY	CP	1, Avenue du Général de Gaulle	91300	MASSY	01 69 53 45 50	48.7303479	2.2721542
91		MONTGERON	CP	142, Avenue de la République	91230	MONTGERON	01 69 52 85 00	48.7023094	2.4638209
91		MONTGERON	CS	Avenue du Stade	91330	YERRES	01 69 48 20 53	48.711295	2.483137
91		PALAISEAU	CP	13, Rue Emile Zola	91120	PALAISEAU	01 69 3165 20	48.7136684	2.2506621
91		PALAISEAU	Csub	124, Avenue des Champs Lasniers	91940	LES ULIS	01 64 86 17 17	48.6837631	2.1698582
91		PALAISEAU	CS	40, Rue de Paris	91400	ORSAY	01 64 86 11 66	48.696858	2.189256
91		PALAISEAU	CS	65, Rue d'Estienne d'Orves	91370	VERRIERES LE BUISSON	01 69 53 68 70		
91		PALAISEAU		Parking		LES ULIS			
91		SAINTE GENEVIEVE DES BOIS	CP	254, Route de Corbeil	91706	SAINTE GENEVIEVE DES BOIS	01 69 72 17 17	48.6313069	2.3378652
91		SAVIGNY SUR ORGE	CP	1, Place Ryckebusch	91605	SAVIGNY SUR ORGE	01 69 12 29 58		
95	DDSP	CERGY PONTOISE	HP	4, Rue de la Croix des Maheux	95000	CERGY PONTOISE	01 34 43 17 17	49.0378629	2.0850263
95		CERGY PONTOISE	CS	5 bis, Place des Linandes	95800	CERGY PONTOISE	01 34 20 13 30	49.0442464	2.0698294
95		CERGY PONTOISE	CS	17, Rue de l'Abondance	95800	CERGY SAINT CRISTOPHE	01 30 73 22 00		
95		CERGY PONTOISE	CS	Rue Salvador Allende	95610	ERAGNY SUR OISE	01 30 37 98 60	49.019978	2.103154
95		CERGY PONTOISE	CS	Place Jean Jaurès	95520	OSNY	01 30 31 10 10	49.060224	2.062603
95		CERGY PONTOISE	CS	13, Rue Serée Depoint	95300	PONTOISE	01 30 32 55 11	49.0475272	2.0969081
95		CERGY PONTOISE	CS	26, Rue du Général Leclerc	95310	SAINT OUEN L'AUMONE	01 34 64 31 16	49.0463269	2.1059719
95		CERGY PONTOISE	PCPP	Bd de l'Oise - Gare Cergy Préfecture	95000	CERGY PONTOISE	01 34 25 86 30	49.044688	2.069543
95		CERGY PONTOISE	AN	1, Rue de la Croix des Maheux - CDSF, BADR, service départemental de nuit	95000	CERGY PONTOISE	01 34 43 17 17		
95		CERGY PONTOISE	AN	6, Rue des Abysses - Quartier des Déchetteries - Chenil	95200	CERGY LE HAUT	01 30 75 88 50		
95		ARGENTEUIL	CP	21, Ave du Maréchal Foch	95100	ARGENTEUIL	01 34 26 17 17	48.9451271	2.2552326
95		ARGENTEUIL	Csub	44, Bd Charles de Gaulle	95110	SANNOIS	01 34 11 81 81	48.9711594	2.2592346
95		ARGENTEUIL	CS	Esplanade Maurice Thorez	95100	ARGENTEUIL	01 3025 78 50	48.952823	2.95
226864		ARGENTEUIL	CS	5, Avenue Maurice Berteaux	95240	CORMEILLES EN PARISIS	01 34 50 20 08	48.9762179	2.2001948
95		BEZONS	CP	24, Avenue Gabriel Peri	95870	BEZONS	01 39 96 53 50 	48.9288166	2.2143459
95		DEUIL LA BARRE	CP	9, Rue du Château	95170	DEUIL LA BARRE	01 34 28 62 80	48.9676763	2.3185744
95		DEUIL LA BARRE	CS	Rue Claude Debussy "Les Sablons"	95170	MONTMANY	01 30 10 10 34	44.3394814	-91.6679382
95		ENGHIEN - MONTMORENCY	CP	20, Rue Malville	95880	ENGHIEN - MONTMORENCY	01 34 05 25 55		
95		ENGHIEN - MONTMORENCY	Csub	6, Rue de Valmy	95160	MONTMORENCY	01 39 34 17 17	48.9861516	2.3142833
95		ENGHIEN - MONTMORENCY	CS	Centre Commercial du Forum - Rue Maurice Ravel	95210	SAINT GRATIEN	01 39 34 64 10		
95		ENGHIEN - MONTMORENCY	CS	4, Rue Blanche	95230	SOISY SOUS MONTMORENCY	01 34 05 12 22	48.9882418	2.3015615
95		ERMONT	CP	201, Rue Richepin	95120	ERMONT	01 30 72 66 66	48.989813	2.248085
95		ERMONT	CS	5, Rue Jeanne Robillon	95600	EAUBONNE	01 34 27 42 90	48.9931561	2.2756297
95		ERMONT	Csub	10, Rue Maurice Berteaux	95130	FRANCONVILLE	01 30 72 61 50	48.986973	2.258643
