reg	dep	com_nom	long	lat	pop_2010
11	75	PARIS	2.3522219	48.856614	2240213.09891947
11	77	ACHERES-LA-FORET	2.570289	48.354976	1285.1270621583
11	77	AUBEPIERRE-OZOUER-LE-REPOS	2.890552	48.632323	899.3365158532
11	77	LE CHATELET-EN-BRIE	2.792095	48.504945	4454.9278055597
11	77	CHATENAY-SUR-SEINE	3.096229	48.418774	879.5762166188
11	77	CHATENOY	2.625239	48.2335629	145.3266051133
11	77	CHATILLON-LA-BORDE	2.809321	48.542797	224.9201762225
11	77	CHATRES	2.810069	48.710549	601.2671130544
11	77	CHAUFFRY	3.182638	48.813587	973.6278218692
11	77	CHAUMES-EN-BRIE	2.841244	48.666072	3037.7497843059
11	77	CHELLES	2.59016	48.877535	54472.3989078242
11	77	CHENOISE	3.194421	48.615664	1260.3553132192
11	77	AUFFERVILLE	2.609046	48.214675	564.0582974641
11	77	CHENOU	2.65855	48.165437	287.1179802025
11	77	CHESSY	2.76456	48.879679	4558.7747819564
11	77	CHEVRAINVILLIERS	2.614599	48.2446119	218.8249853725
11	77	CHEVRU	3.194326	48.736013	1129.3084137991
11	77	CHEVRY-COSSIGNY	2.659046	48.725095	3689.6109183159
11	77	CHEVRY-EN-SEREINE	2.942418	48.254415	474.5481209427
11	77	CHOISY-EN-BRIE	3.218017	48.758761	1350.8907702115
11	77	CITRY	3.237548	48.969526	770.1901176171
11	77	CLAYE-SOUILLY	2.68836	48.945849	11517.3615860031
11	77	CLOS-FONTAINE	3.016708	48.606468	235.5529280747
11	77	AUGERS-EN-BRIE	3.356014	48.679174	311.77205298
11	77	COCHEREL	3.100598	49.021652	579.4466592164
11	77	COLLEGIEN	2.672032	48.836583	2969.1053836449
11	77	COMBS-LA-VILLE	2.55769	48.66602	20812.6294566412
11	77	COMPANS	2.663187	48.993391	655.0584525606
11	77	CONCHES-SUR-GONDOIRE	2.716324	48.856193	1788.7300762322
11	77	CONDE-SAINTE-LIBIAIRE	2.832361	48.897805	1426.408670653
11	77	CONGIS-SUR-THEROUANNE	2.97453	49.007185	1808.4251403739
11	77	COUBERT	2.695835	48.671688	1936.6756487267
11	77	COUILLY-PONT-AUX-DAMES	2.860112	48.883901	2090.0113194971
11	77	COULOMBS-EN-VALOIS	3.126108	49.070003	585.1396380469
11	77	AULNOY	3.089204	48.847191	406.633500535
11	77	COULOMMES	2.93356	48.890754	405.6800206949
11	77	COULOMMIERS	3.083497	48.813071	13740.6121793586
11	77	COUPVRAY	2.794171	48.892152	2680.100592532
11	77	COURCELLES-EN-BASSEE	3.0550069	48.408927	237.1734639982
11	77	COURCHAMP	3.288385	48.635345	137.098307209
11	77	COURPALAY	2.960128	48.648117	1340.6588718892
11	77	COURTACON	3.290306	48.695109	191.9582947016
11	77	COURTOMER	2.902965	48.653562	534.0985033102
11	77	COURTRY	2.603204	48.918273	5885.0070348012
11	77	AVON	2.720733	48.404839	14067.1791444682
11	77	COUTENCON	2.99606	48.47108	269.3435835216
11	77	COUTEVROULT	2.8536579	48.86278	955.0027894435
11	77	CRECY-LA-CHAPELLE	2.910674	48.857397	4022.7953636909
11	77	CREGY-LES-MEAUX	2.872952	48.977929	4117.9936716112
11	77	CREVECOEUR-EN-BRIE	2.907322	48.754329	303.9897529656
11	77	CRISENOY	2.743004	48.595981	624.3037230283
11	77	CROISSY-BEAUBOURG	2.659396	48.8279179	1942.5475105214
11	77	LA CROIX-EN-BRIE	3.0751179	48.593094	658.2116861915
11	77	CROUY-SUR-OURCQ	3.074403	49.090669	1717.4800726994
11	77	CUCHARMOY	3.194115	48.583034	242.4118459074
11	77	BABY	3.342684	48.396002	70.3507960926
11	77	CUISY	2.772578	49.019927	463.6048423393
11	77	DAGNY	3.170322	48.717055	341.4568302043
11	77	DAMMARIE-LES-LYS	2.634831	48.515451	19857.8585183417
11	77	DAMMARTIN-EN-GOELE	2.683399	49.054824	7717.7256219957
11	77	DAMMARTIN-SUR-TIGEAUX	2.918746	48.819177	867.5384395829
11	77	DAMPMART	2.7362479	48.885476	3231.2340605479
11	77	DARVAULT	2.736251	48.2713899	786.8757626992
11	77	DHUISY	3.160344	49.039309	272.3274042785
11	77	DIANT	2.993369	48.2814679	217.1241759722
11	77	DONNEMARIE-DONTILLY	3.123497	48.4779709	2733.3014828
11	77	BAGNEAUX-SUR-LOING	2.705274	48.231029	1630.0722511845
11	77	DORMELLES	2.902584	48.315018	867.2687254717
11	77	DOUE	3.163851	48.865373	972.8209057798
11	77	DOUY-LA-RAMEE	2.8705949	49.05657	291.1293894549
11	77	ECHOUBOULAINS	2.945058	48.46373	534.1281199045
11	77	LES ECRENNES	2.856736	48.503636	593.6865640778
11	77	ECUELLES	2.820919	48.353944	2450.5937557094
11	77	EGLIGNY	3.121316	48.427304	333.6508869455
11	77	EGREVILLE	2.871868	48.175288	2199.5405855932
11	77	EMERAINVILLE	2.622037	48.811755	6967.4770382952
11	77	EPISY	2.785141	48.334304	504.2864372684
11	77	ESBLY	2.813534	48.902025	5707.3782683828
11	77	ESMANS	2.975816	48.34783	851.0669650206
11	77	ETREPILLY	2.930433	49.034371	811.8979099869
11	77	EVERLY	3.252027	48.467282	579.439879111
11	77	EVRY-GREGY-SUR-YERRE	2.63923	48.65696	2388.7500872088
11	77	FAREMOUTIERS	2.997246	48.799399	2364.9414600964
11	77	FAVIERES	2.774784	48.764022	1137.3167371337
11	77	FAY-LES-NEMOURS	2.673781	48.2309259	465.6618979249
11	77	FERICY	2.802261	48.4645579	638.895803748
11	77	BAILLY-ROMAINVILLIERS	2.823803	48.847068	6474.8130211956
11	77	FEROLLES-ATTILLY	2.634358	48.7343819	1128.766527619
11	77	FERRIERES-EN-BRIE	2.7047469	48.8215519	2301.7988399236
11	77	LA FERTE-GAUCHER	3.30549	48.780643	4204.0483716311
11	77	LA FERTE-SOUS-JOUARRE	3.130059	48.950507	8969.5308583963
11	77	FLAGY	2.921402	48.312525	646.848545683
11	77	FLEURY-EN-BIERE	2.5492309	48.448246	666.003232104
11	77	FONTAINEBLEAU	2.70162	48.404676	15095.6259048742
11	77	FONTAINE-FOURCHES	3.39481	48.412503	586.2960669277
11	77	FONTAINE-LE-PORT	2.759662	48.485944	973.9706222562
11	77	BALLOY	3.146277	48.398159	314.0214920962
11	77	FONTAINS	3.001769	48.526922	273.9021675684
11	77	FONTENAILLES	2.952495	48.553493	1063.4148439454
11	77	FONTENAY-TRESIGNY	2.866479	48.706897	5141.4198479036
11	77	FORFRY	2.848536	49.057746	264.4097826317
11	77	FORGES	2.960859	48.419369	422.9839065415
11	77	FOUJU	2.777921	48.585682	489.9590058999
11	77	FRESNES-SUR-MARNE	2.740468	48.937613	708.15080911
11	77	FRETOY	3.204391	48.703957	166.8348193478
11	77	FROMONT	2.502971	48.255306	248.1435797007
11	77	FUBLAINES	2.936164	48.9380499	1194.1611876498
11	77	AMILLIS	3.133658	48.737433	768.9797395549
11	77	BANNOST-VILLEGAGNON	3.191049	48.677898	658.5402037044
11	77	GARENTREVILLE	2.549866	48.2351979	105.3898784566
11	77	GASTINS	3.02114	48.628117	641.6567382477
11	77	LA GENEVRAYE	2.751071	48.3164469	638.2238487352
11	77	GERMIGNY-L'EVEQUE	2.945494	48.993659	1207.7932164946
11	77	GERMIGNY-SOUS-COULOMBS	3.158346	49.064162	198.90166772
11	77	GESVRES-LE-CHAPITRE	2.851961	49.044619	164.9566462857
11	77	GIREMOUTIERS	3.029564	48.842636	149.0775656725
11	77	GIRONVILLE	2.5283129	48.185989	188.7756591674
11	77	GOUAIX	3.293361	48.480117	1452.7878426954
11	77	GOUVERNES	2.699218	48.857732	1105.2962040715
11	77	BARBEY	3.057734	48.364855	189.8150692402
11	77	LA GRANDE-PAROISSE	2.900735	48.386235	2592.3976888826
11	77	GRANDPUITS-BAILLY-CARROIS	2.975419	48.58443	935.1062641119
11	77	GRAVON	3.120029	48.3998909	142.0190709387
11	77	GRESSY	2.674049	48.964879	984.4110748854
11	77	GRETZ-ARMAINVILLIERS	2.7366419	48.7402749	7964.5474622165
11	77	GREZ-SUR-LOING	2.690599	48.316069	1388.5107209117
11	77	GRISY-SUISNES	2.668597	48.68471	2383.4037595479
11	77	GRISY-SUR-SEINE	3.317715	48.437473	108.7054997434
11	77	GUERARD	2.950987	48.816643	2262.0681270241
11	77	BARBIZON	2.603497	48.447193	1464.3401575795
11	77	GUERCHEVILLE	2.558063	48.261151	297.6101992603
11	77	GUERMANTES	2.709163	48.8523629	1137.3125862917
11	77	GUIGNES	2.797427	48.637206	3372.417357784
11	77	GURCY-LE-CHATEL	3.087072	48.471334	587.8833804398
11	77	HAUTEFEUILLE	2.962949	48.768026	357.2569176076
11	77	LA HAUTE-MAISON	3.000744	48.881962	316.8557873522
11	77	HERICY	2.764798	48.449164	2549.281099471
11	77	HERME	3.349146	48.483681	597.5602858163
11	77	HONDEVILLIERS	3.316453	48.904733	251.0426726739
11	77	LA HOUSSAYE-EN-BRIE	2.874661	48.754832	1588.5761969001
11	77	BARCY	2.880452	49.0174	227.3031872601
11	77	ICHY	2.545904	48.20378	139.9617964489
11	77	ISLES-LES-MELDEUSES	3.005659	48.999051	795.3568519736
11	77	ISLES-LES-VILLENOY	2.8281139	48.911358	930.6731666733
11	77	IVERNY	2.787868	48.998993	596.2037852021
11	77	JABLINES	2.761107	48.917429	616.8098726845
11	77	JAIGNES	3.052163	48.991486	326.8013403554
11	77	JAULNES	3.270937	48.417827	348.3498689041
11	77	JOSSIGNY	2.75335	48.837864	678.5731421116
11	77	JOUARRE	3.130026	48.92697	4289.8067946419
11	77	JOUY-LE-CHATEL	3.128617	48.665159	1429.578671093
11	77	BASSEVELLE	3.286612	48.927339	334.1508684933
11	77	JOUY-SUR-MORIN	3.27361	48.794082	2067.8998240042
11	77	JUILLY	2.705813	49.015353	2099.3611300397
11	77	JUTIGNY	3.232125	48.498776	593.9740536351
11	77	LAGNY-SUR-MARNE	2.713016	48.87296	20538.103234332
11	77	LARCHANT	2.595654	48.284846	725.5768876059
11	77	LAVAL-EN-BRIE	2.996464	48.424822	465.3764950543
11	77	LECHELLE	3.386313	48.5781149	541.4582746787
11	77	LESCHEROLLES	3.345783	48.762078	482.3857322943
11	77	LESCHES	2.780588	48.908623	733.8083559196
11	77	LESIGNY	2.61491	48.743921	7439.1787606019
11	77	BAZOCHES-LES-BRAY	3.187679	48.398506	796.8319922016
11	77	LEUDON-EN-BRIE	3.269554	48.733568	116.1104394501
11	77	LIEUSAINT	2.551107	48.631195	10615.6292512164
11	77	LIMOGES-FOURCHES	2.664534	48.626922	508.5645120278
11	77	LISSY	2.694303	48.626514	190.9134185723
11	77	LIVERDY-EN-BRIE	2.775059	48.699862	1268.5716563057
11	77	LIVRY-SUR-SEINE	2.684786	48.511018	1912.9604121926
11	77	LIZINES	3.1781419	48.526871	170.9708767536
11	77	LIZY-SUR-OURCQ	3.026478	49.025453	3502.5841030688
11	77	LOGNES	2.6327379	48.836571	13360.0378982319
11	77	LONGPERRIER	2.663501	49.051977	2315.1258153954
11	77	BEAUCHERY-SAINT-MARTIN	3.4042	48.615	408.0448097219
11	77	LONGUEVILLE	3.247348	48.514536	1617.6306451258
11	77	LORREZ-LE-BOCAGE-PREAUX	2.874197	48.223088	1218.4070982718
11	77	LOUAN-VILLEGRUIS-FONTAINE	3.48	48.6256	542.0331223089
11	77	LUISETAINES	3.180571	48.46775	230.1728580755
11	77	LUMIGNY-NESLES-ORMEAUX	2.948911	48.736362	1546.1199553637
11	77	LUZANCY	3.187653	48.972669	1049.5867005849
11	77	MACHAULT	2.828899	48.455316	698.8595759528
11	77	LA MADELEINE-SUR-LOING	2.705568	48.203873	337.6788092856
11	77	MAGNY-LE-HONGRE	2.814889	48.862993	6405.3664805544
11	77	MAINCY	2.701063	48.549769	1680.5616080199
11	77	BEAUMONT-DU-GATINAIS	2.4764565	48.1392779	1209.3181375216
11	77	MAISONCELLES-EN-BRIE	2.990862	48.861909	881.8910054518
11	77	MAISONCELLES-EN-GATINAIS	2.626049	48.187434	138.8137022415
11	77	MAISON-ROUGE	3.151747	48.55862	863.0751209737
11	77	MARCHEMORET	2.77118	49.050413	623.1122803053
11	77	MARCILLY	2.877401	49.036564	417.3001958607
11	77	LES MARETS	3.314097	48.670626	150.4874485744
11	77	MAREUIL-LES-MEAUX	2.85968	48.927228	2142.3697329812
11	77	MARLES-EN-BRIE	2.879155	48.728161	1426.71913825
11	77	MAROLLES-EN-BRIE	3.164424	48.771532	425.0592867155
11	77	MAROLLES-SUR-SEINE	3.035295	48.387036	1619.7005027049
11	77	BEAUTHEIL	3.087455	48.762974	733.3192352199
11	77	MARY-SUR-MARNE	3.029875	49.01483	1184.9053977414
11	77	MAUPERTHUIS	3.039273	48.7681929	488.1497839763
11	77	MAUREGARD	2.580725	49.032928	286.7548915755
11	77	MAY-EN-MULTIEN	3.027701	49.073811	851.5914843611
11	77	MEAUX	2.879255	48.959396	48672.2243282285
11	77	LE MEE-SUR-SEINE	2.632122	48.534031	19789.0744754767
11	77	MEIGNEUX	3.10363	48.511401	227.1161607255
11	77	MEILLERAY	3.424258	48.788533	506.7440307918
11	77	MELUN	2.6554	48.542105	39584.4609093577
11	77	MELZ-SUR-SEINE	3.416785	48.497692	385.3677617006
11	77	BEAUVOIR	2.862701	48.6447379	190.8486115356
11	77	MERY-SUR-MARNE	3.201474	48.966494	633.0387606837
11	77	LE MESNIL-AMELOT	2.5923759	49.017823	922.985139768
11	77	MESSY	2.701035	48.967136	1147.3996184379
11	77	MISY-SUR-YONNE	3.089341	48.359721	978.762844515
11	77	MITRY-MORY	2.619156	48.98543	18309.7250115751
11	77	MOISENAY	2.738782	48.563482	1090.1081195958
11	77	MOISSY-CRAMAYEL	2.593706	48.627158	16890.2856013001
11	77	MONDREVILLE	2.609734	48.142658	346.1249739256
11	77	MONS-EN-MONTOIS	3.147955	48.489061	470.745538204
11	77	MONTARLOT	2.85797	48.351961	191.8140850705
11	77	AMPONVILLE	2.529407	48.279336	397.8543882451
11	77	BELLOT	3.31897	48.857006	811.1049671504
11	77	MONTCEAUX-LES-MEAUX	2.985497	48.941482	608.359407357
11	77	MONTCEAUX-LES-PROVINS	3.437441	48.694152	317.7628559362
11	77	MONTCOURT-FROMONVILLE	2.700967	48.302946	2064.0193497418
11	77	MONTDAUPHIN	3.414141	48.849711	231.3134637391
11	77	MONTENILS	3.476823	48.841803	33.9305563463
11	77	MONTEREAU-FAULT-YONNE	2.956193	48.384734	15945.9820001388
11	77	MONTEREAU-SUR-LE-JARD	2.672559	48.589506	551.8035715291
11	77	MONTEVRAIN	2.745977	48.874927	8673.6607815802
11	77	MONTGE-EN-GOELE	2.748872	49.028359	708.8850890715
11	77	MONTHYON	2.8318279	49.010494	1718.921788987
11	77	BERNAY-VILBERT	2.9383	48.6769	831.1834495743
11	77	MONTIGNY-LE-GUESDIER	3.254057	48.3833089	286.8344702754
11	77	MONTIGNY-LENCOUP	3.060868	48.452553	1252.1055315411
11	77	MONTIGNY-SUR-LOING	2.744978	48.335458	2646.7965657454
11	77	MONTMACHOUX	2.993637	48.319086	227.8260522962
11	77	MONTOLIVET	3.439724	48.829459	266.80461019
11	77	MONTRY	2.8283999	48.886866	3275.6310797036
11	77	MORET-SUR-LOING	2.816429	48.373347	4331.8991468375
11	77	MORMANT	2.888184	48.610984	4205.025637739
11	77	MORTCERF	2.919072	48.7949	1445.8998771476
11	77	MORTERY	3.259481	48.599362	176.3814089726
11	77	BETON-BAZOCHES	3.245831	48.701067	764.1767432304
11	77	MOUROUX	3.0391119	48.824685	4814.149696722
11	77	MOUSSEAUX-LES-BRAY	3.229278	48.41049	673.6711995711
11	77	MOUSSY-LE-NEUF	2.603502	49.064014	2722.3299074475
11	77	MOUSSY-LE-VIEUX	2.624373	49.047188	1063.7051879064
11	77	MOUY-SUR-SEINE	3.243799	48.420719	368.8620922702
11	77	NANDY	2.56649	48.58047	5196.1602951336
11	77	NANGIS	3.013535	48.554611	7746.73425095
11	77	NANTEAU-SUR-ESSONNE	2.427158	48.321032	425.7229707941
11	77	NANTEAU-SUR-LUNAIN	2.809272	48.256113	732.1668498181
11	77	BEZALLES	3.241995	48.678058	237.1296375571
11	77	NANTEUIL-LES-MEAUX	2.897243	48.928386	5195.5217557648
11	77	NANTEUIL-SUR-MARNE	3.220698	48.978081	452.6144322354
11	77	NANTOUILLET	2.707279	49.002425	256.9885546994
11	77	NEMOURS	2.692611	48.267043	12531.2567357934
11	77	CHAUCONIN-NEUFMONTIERS	2.838324	48.973767	2943.2654405624
11	77	NEUFMOUTIERS-EN-BRIE	2.830289	48.7688739	1060.7402327578
11	77	NOISIEL	2.628701	48.85478	15964.2255638331
11	77	NOISY-RUDIGNON	2.931785	48.335437	611.4847574677
11	77	NOISY-SUR-ECOLE	2.496133	48.373156	1953.0283835555
11	77	BLANDY	2.782819	48.5669449	782.8564122929
11	77	NONVILLE	2.794352	48.28204	634.0296473149
11	77	NOYEN-SUR-SEINE	3.349481	48.452794	374.4497453238
11	77	OBSONVILLE	2.5600839	48.217079	108.0217205393
11	77	OCQUERRE	3.057334	49.038697	415.4062821511
11	77	OISSERY	2.8189639	49.071245	2199.9351412084
11	77	ORLY-SUR-MORIN	3.229836	48.903877	646.635248567
11	77	LES ORMES-SUR-VOULZIE	3.223967	48.460502	833.7785145965
11	77	ORMESSON	2.648624	48.248366	256.4389918876
11	77	OTHIS	2.675071	49.073912	6536.7463442605
11	77	BLENNES	3.023408	48.25764	554.0048204762
11	77	OZOIR-LA-FERRIERE	2.671739	48.763827	19530.6027538616
11	77	OZOUER-LE-VOULGIS	2.77331	48.659608	2003.7740062189
11	77	PALEY	2.8543599	48.248658	428.6592887633
11	77	PAMFOU	2.871128	48.4610399	932.8130222859
11	77	PAROY	3.198835	48.479945	161.7400126635
11	77	PASSY-SUR-SEINE	3.348288	48.425318	46.7953938451
11	77	PECY	3.078244	48.65574	846.3307578417
11	77	PENCHARD	2.86036	48.986833	1113.0097004238
11	77	PERTHES	2.555278	48.475655	2144.9328239059
11	77	BOISDON	3.225833	48.684706	88.8441746625
11	77	PEZARCHES	2.989805	48.735704	409.3254345019
11	77	PIERRE-LEVEE	3.0379139	48.899336	479.565442699
11	77	LE PIN	2.630118	48.915081	1213.3249564627
11	77	LE PLESSIS-AUX-BOIS	2.768818	49.003607	263.677966242
11	77	LE PLESSIS-FEU-AUSSOUX	3.032086	48.715732	585.3819026139
11	77	LE PLESSIS-L'EVEQUE	2.784366	49.00856	239.8731531387
11	77	LE PLESSIS-PLACY	2.98905	49.05788	258.5306158578
11	77	POIGNY	3.2836599	48.5394689	477.2474167825
11	77	POINCY	2.935734	48.969237	718.7115474593
11	77	BOIS-LE-ROI	2.692292	48.474568	5404.9601206625
11	77	POLIGNY	2.74573	48.22435	797.3893664307
11	77	POMMEUSE	3.015702	48.816543	2714.803963802
11	77	POMPONNE	2.690963	48.881511	3460.2507690878
11	77	PONTAULT-COMBAULT	2.607598	48.801255	34230.8519439601
11	77	PONTCARRE	2.705341	48.797343	2092.1094859668
11	77	PRECY-SUR-MARNE	2.776364	48.930027	786.4934904639
11	77	PRESLES-EN-BRIE	2.7363209	48.714291	2289.8887165667
11	77	PRINGY	2.558354	48.521713	2606.2234278187
11	77	PROVINS	3.299203	48.560149	12522.7114034162
11	77	BOISSETTES	2.610475	48.520447	443.2049237058
11	77	PUISIEUX	2.916235	49.066208	297.6470549604
11	77	QUIERS	2.970954	48.607127	679.5312885376
11	77	QUINCY-VOISINS	2.874444	48.8996	5079.7289709013
11	77	RAMPILLON	3.066898	48.549948	850.2617052083
11	77	REAU	2.6272	48.613078	1125.2151923003
11	77	REBAIS	3.23182	48.8466	2163.8599996384
11	77	RECLOSES	2.640925	48.346409	728.159860387
11	77	REMAUVILLE	2.824804	48.211802	460.5334962925
11	77	REUIL-EN-BRIE	3.146541	48.960885	824.2227366084
11	77	LA ROCHETTE	2.662553	48.508348	3098.2866056945
11	77	BOISSISE-LA-BERTRAND	2.588402	48.527127	980.4120444262
11	77	ROISSY-EN-BRIE	2.654541	48.790685	22791.1047420346
11	77	ROUILLY	3.2781	48.5922	495.1940306381
11	77	ROUVRES	2.716335	49.062066	640.7399423031
11	77	ROZAY-EN-BRIE	2.959045	48.683832	2674.3459227689
11	77	RUBELLES	2.680726	48.55818	2044.1810035037
11	77	RUMONT	2.4980319	48.265087	125.1543166342
11	77	RUPEREUX	3.3320059	48.636376	107.8189293222
11	77	SAACY-SUR-MARNE	3.208556	48.961481	1713.6088148006
11	77	SABLONNIERES	3.290557	48.879283	700.5317765752
11	77	SAINT-ANGE-LE-VIEL	2.9024899	48.264973	222.4748665251
11	77	ANDREZEL	2.811922	48.611476	269.0335971738
11	77	BOISSISE-LE-ROI	2.571664	48.526605	3574.3426608849
11	77	SAINT-AUGUSTIN	3.0298	48.786467	1734.1532139959
11	77	SAINTE-AULDE	3.180747	49.002132	642.7293206586
11	77	SAINT-BARTHELEMY	3.362957	48.819306	333.0765001308
11	77	SAINT-BRICE	3.322872	48.566991	735.8126972633
11	77	SAINTE-COLOMBE	3.257106	48.528717	1730.4760615078
11	77	SAINT-CYR-SUR-MORIN	3.189882	48.914918	1855.7013042878
11	77	SAINT-DENIS-LES-REBAIS	3.209997	48.835707	970.7987235864
11	77	SAINT-FARGEAU-PONTHIERRY	2.5442	48.53	12479.5434359342
11	77	SAINT-FIACRE	2.954301	48.923062	374.0553679825
11	77	SAINT-GERMAIN-LAVAL	2.996957	48.39862	2966.2111635799
11	77	BOISSY-AUX-CAILLES	2.502919	48.3197819	324.1745849389
11	77	SAINT-GERMAIN-LAXIS	2.709309	48.581953	525.7228540395
11	77	SAINT-GERMAIN-SOUS-DOUE	3.145099	48.851895	496.3053660185
11	77	SAINT-GERMAIN-SUR-ECOLE	2.508776	48.474465	364.4633406538
11	77	SAINT-GERMAIN-SUR-MORIN	2.851295	48.882725	3604.2604877625
11	77	SAINT-HILLIERS	3.257777	48.621752	431.3717567513
11	77	SAINT-JEAN-LES-DEUX-JUMEAUX	3.0262889	48.943657	1122.0575651584
11	77	SAINT-JUST-EN-BRIE	3.104723	48.600352	260.6913679805
11	77	SAINT-LEGER	3.25515	48.838971	201.9775051599
11	77	SAINT-LOUP-DE-NAUD	3.210084	48.535713	871.362246528
11	77	SAINT-MAMMES	2.807999	48.388682	3230.7592631209
11	77	BOISSY-LE-CHATEL	3.139148	48.829078	3116.2639289408
11	77	SAINT-MARD	2.702097	49.040614	3715.3600389446
11	77	SAINT-MARS-VIEUX-MAISONS	3.3211	48.7425	308.7593575992
11	77	SAINT-MARTIN-DES-CHAMPS	3.336186	48.7784199	735.4503312593
11	77	SAINT-MARTIN-DU-BOSCHET	3.427933	48.735707	309.5526628234
11	77	SAINT-MARTIN-EN-BIERE	2.567121	48.437126	817.4689432327
11	77	SAINT-MERY	2.826109	48.577528	397.6800776721
11	77	SAINT-MESMES	2.698836	48.985053	532.5283594818
11	77	SAINT-OUEN-EN-BRIE	2.917322	48.557753	829.4106415458
11	77	SAINT-OUEN-SUR-MORIN	3.207623	48.9044	555.630155678
11	77	BOITRON	3.26162	48.897217	387.276981099
11	77	SAINT-PATHUS	2.794489	49.07342	5529.5947737068
11	77	SAINT-PIERRE-LES-NEMOURS	2.681118	48.266196	5642.6321330921
11	77	SAINT-REMY-LA-VANNE	3.232405	48.792109	983.3720013561
11	77	SAINTS	3.05794	48.7562349	1275.5207240752
11	77	SAINT-SAUVEUR-LES-BRAY	3.203219	48.439373	326.1181618889
11	77	SAINT-SAUVEUR-SUR-ECOLE	2.546967	48.49677	1102.8426114584
11	77	SAINT-SIMEON	3.202963	48.798484	866.5733170325
11	77	SAINT-SOUPPLETS	2.806764	49.039423	3364.4145538299
11	77	SAINT-THIBAULT-DES-VIGNES	2.6880829	48.868659	5795.9400977673
11	77	SALINS	3.0216	48.421604	1006.9304293173
11	77	BOMBON	2.858968	48.572776	977.6352644909
11	77	SAMMERON	3.080413	48.947394	991.0388546931
11	77	SAMOIS-SUR-SEINE	2.75345	48.4530699	1959.9972838883
11	77	SAMOREAU	2.754079	48.423454	2359.147996037
11	77	SANCY	2.960435	48.8859009	394.6924070797
11	77	SANCY-LES-PROVINS	3.391342	48.696215	325.005797107
11	77	SAVIGNY-LE-TEMPLE	2.580987	48.59586	29019.7638456977
11	77	SAVINS	3.200901	48.510057	646.6505844282
11	77	SEINE-PORT	2.549623	48.558093	1910.2508161831
11	77	SEPT-SORTS	3.103201	48.9373999	435.805191861
11	77	SERRIS	2.788231	48.84432	8504.3786697752
11	77	BOUGLIGNY	2.657468	48.195248	720.8865423445
11	77	SERVON	2.587127	48.7168149	2862.8757400777
11	77	SIGNY-SIGNETS	3.067092	48.926805	595.2621781815
11	77	SIGY	3.1812109	48.478112	45.5456884032
11	77	SIVRY-COURTRY	2.755006	48.527629	953.3719874381
11	77	SOGNOLLES-EN-MONTOIS	3.167527	48.511302	433.2965959568
11	77	SOIGNOLLES-EN-BRIE	2.69887	48.653547	1972.4518826905
11	77	SOISY-BOUY	3.289738	48.509786	780.8292378335
11	77	SOLERS	2.717903	48.657948	1223.5734816251
11	77	SOUPPES-SUR-LOING	2.733178	48.183625	5599.3169956214
11	77	SOURDUN	3.349022	48.539468	1666.5814064092
11	77	BOULANCOURT	2.4363419	48.258276	356.4222103225
11	77	TANCROU	3.046119	48.999808	355.1275977208
11	77	THENISY	3.176792	48.489183	276.3504763669
11	77	THIEUX	2.66772	49.010414	835.6495599115
11	77	THOMERY	2.784672	48.409154	3424.8318605306
11	77	THORIGNY-SUR-MARNE	2.712292	48.883881	9351.8021632706
11	77	THOURY-FEROTTES	2.942105	48.291489	610.1737473545
11	77	TIGEAUX	2.905147	48.829031	360.8159619224
11	77	LA TOMBE	3.089538	48.388374	213.9018135993
11	77	TORCY	2.654472	48.850572	21878.8040587237
11	77	TOUQUIN	3.011745	48.735158	1145.308829358
11	77	BOULEURS	2.906443	48.8815079	1490.5311871822
11	77	TOURNAN-EN-BRIE	2.7658299	48.739886	8047.9267782541
11	77	TOUSSON	2.45945	48.346385	369.9736285942
11	77	LA TRETOIRE	3.251912	48.873994	371.5508963936
11	77	TREUZY-LEVELAY	2.81496	48.272743	457.3320710021
11	77	TRILBARDOU	2.804777	48.943741	640.6916357366
11	77	TRILPORT	2.947058	48.958039	4861.5353346199
11	77	TROCY-EN-MULTIEN	2.963061	49.042341	276.6058771425
11	77	URY	2.6016499	48.3409199	846.6784050695
11	77	USSY-SUR-MARNE	3.07337	48.954007	951.5632127865
11	77	VAIRES-SUR-MARNE	2.639543	48.873609	11986.6117895322
11	77	BOURRON-MARLOTTE	2.7019289	48.340508	2774.3311203474
11	77	VALENCE-EN-BRIE	2.890114	48.44405	972.8880009634
11	77	VANVILLE	3.10689	48.554918	164.3027466011
11	77	VARENNES-SUR-SEINE	2.929185	48.376287	3203.2373261205
11	77	VARREDDES	2.928891	49.002369	1798.2853944678
11	77	VAUCOURTOIS	2.953043	48.895345	211.2228180163
11	77	LE VAUDOUE	2.519083	48.35528	711.2952655689
11	77	VAUDOY-EN-BRIE	3.080243	48.688393	842.2954202216
11	77	VAUX-LE-PENIL	2.68411	48.525439	11303.9763096448
11	77	VAUX-SUR-LUNAIN	2.937085	48.227118	204.4422348517
11	77	BOUTIGNY	2.928621	48.920193	855.684910161
11	77	VENDREST	3.093234	49.0463049	729.4874260434
11	77	VENEUX-LES-SABLONS	2.7951609	48.377846	4788.5372663316
11	77	VERDELOT	3.365642	48.875163	745.9081761149
11	77	VERNEUIL-L'ETANG	2.835813	48.645057	3001.5086055106
11	77	VERNOU-LA-CELLE-SUR-SEINE	2.8466109	48.389259	2610.7764612205
11	77	VERT-SAINT-DENIS	2.613554	48.565306	6444.0239467951
11	77	VIEUX-CHAMPAGNE	3.137304	48.579575	166.2100409767
11	77	VIGNELY	2.808037	48.931651	274.8138759555
11	77	ANNET-SUR-MARNE	2.720887	48.925877	3403.8958380552
11	77	BRANSLES	2.834815	48.152225	516.3126963905
11	77	VILLEBEON	2.9409519	48.207748	468.9979665712
11	77	VILLECERF	2.842448	48.327214	796.1650851133
11	77	VILLEMARECHAL	2.86839	48.267559	825.3259957836
11	77	VILLEMAREUIL	2.972026	48.921085	404.2910755502
11	77	VILLEMER	2.822376	48.301457	669.4897903154
11	77	VILLENAUXE-LA-PETITE	3.310514	48.406323	495.657024503
11	77	VILLENEUVE-LE-COMTE	2.82967	48.814025	1749.5102467763
11	77	VILLENEUVE-LES-BORDES	3.042563	48.4866	560.2770579604
11	77	BRAY-SUR-SEINE	3.239486	48.415097	2274.3685443594
11	77	VILLENEUVE-SAINT-DENIS	2.793211	48.815617	697.4383836556
11	77	VILLENEUVE-SOUS-DAMMARTIN	2.640046	49.034417	606.1513113388
11	77	VILLENEUVE-SUR-BELLOT	3.341365	48.862032	1130.1931522674
11	77	VILLENOY	2.865699	48.944224	4257.3361189184
11	77	VILLEPARISIS	2.614385	48.938315	24403.4679150137
11	77	VILLEROY	2.781206	48.982465	692.1003342994
11	77	VILLE-SAINT-JACQUES	2.894046	48.342418	720.6743815871
11	77	VILLEVAUDE	2.654012	48.915811	1691.7364452217
11	77	VILLIERS-EN-BIERE	2.604438	48.496528	202.0056248359
11	77	VILLIERS-SAINT-GEORGES	3.406682	48.649727	1198.9450850787
11	77	BREAU	2.880461	48.556606	344.5063482372
11	77	VILLIERS-SOUS-GREZ	2.647616	48.319337	767.6208664382
11	77	VILLIERS-SUR-MORIN	2.879298	48.859847	1791.5099427378
11	77	VILLIERS-SUR-SEINE	3.374745	48.457034	321.32277
11	77	VILLUIS	3.355929	48.41049	259.4122398664
11	77	VIMPELLES	3.16579	48.4419169	499.1404170636
11	77	VINANTES	2.734706	49.009383	343.3295266368
11	77	VINCY-MANOEUVRE	2.9626739	49.078302	205.4240045609
11	77	VOINSLES	3.004954	48.691044	583.6424658154
11	77	VOISENON	2.663626	48.569439	1118.5873180086
11	77	VOULANGIS	2.89625	48.849781	1556.3945911571
11	77	BRIE-COMTE-ROBERT	2.6103697	48.6912267	16597.3372760397
11	77	VOULTON	3.333206	48.617236	322.7564872199
11	77	VOULX	2.969277	48.282085	1685.4016936162
11	77	VULAINES-LES-PROVINS	3.218781	48.560117	63.8879865699
11	77	VULAINES-SUR-SEINE	2.764365	48.430925	2687.1103645898
11	77	YEBLES	2.7708879	48.637575	632.9505729364
11	77	LA BROSSE-MONTCEAUX	3.019286	48.344602	712.48179274
11	77	BROU-SUR-CHANTEREINE	2.629745	48.882531	4160.9203108222
11	77	BURCY	2.5224859	48.23832	141.9686162593
11	77	BUSSIERES	3.236036	48.922525	507.6604996134
11	77	BUSSY-SAINT-GEORGES	2.69802	48.842205	24502.0872157989
11	77	BUSSY-SAINT-MARTIN	2.691278	48.849722	736.877200107
11	77	ARBONNE-LA-FORET	2.565299	48.414053	977.666398366
11	77	BUTHIERS	2.430321	48.287728	774.1640884838
11	77	CANNES-ECLUSE	2.984569	48.365207	2715.3202572501
11	77	CARNETIN	2.70627	48.89925	456.2109681936
11	77	LA CELLE-SUR-MORIN	2.9678	48.8039	1224.9697705031
11	77	CELY	2.532939	48.4605109	1207.7182984475
11	77	CERNEUX	3.344795	48.693545	284.382654945
11	77	CESSON	2.600995	48.56225	8429.4692299817
11	77	CESSOY-EN-MONTOIS	3.1479529	48.504587	217.1612064698
11	77	CHAILLY-EN-BIERE	2.6067619	48.466954	2066.0941601504
11	77	ARGENTIERES	2.870064	48.655096	363.6354421335
11	77	CHAILLY-EN-BRIE	3.124146	48.789548	1412.1515046838
11	77	CHAINTREAUX	2.82005	48.199549	881.5287232475
11	77	CHALAUTRE-LA-GRANDE	3.459453	48.541825	686.8364448052
11	77	CHALAUTRE-LA-PETITE	3.313777	48.529075	538.3565739485
11	77	CHALIFERT	2.77263	48.888098	1179.45143954
11	77	CHALMAISON	3.251655	48.483055	690.3934576225
11	77	CHAMBRY	2.896295	48.996649	883.9791906022
11	77	CHAMIGNY	3.150752	48.973501	1341.2203072716
11	77	CHAMPAGNE-SUR-SEINE	2.797807	48.399431	6240.7799634356
11	77	ARMENTIERES-EN-BRIE	3.021093	48.977919	1352.4927168828
11	77	CHAMPCENEST	3.283367	48.669707	141.3698042686
11	77	CHAMPDEUIL	2.730407	48.621968	637.2205335818
11	77	CHAMPEAUX	2.806285	48.584583	746.8662316232
11	77	CHAMPS-SUR-MARNE	2.602651	48.852775	24411.4454018396
11	77	CHANGIS-SUR-MARNE	3.026721	48.958626	1071.5948407002
11	77	CHANTELOUP-EN-BRIE	2.736783	48.855923	1873.8117332175
11	77	LA CHAPELLE-GAUTHIER	2.900209	48.5494119	1389.0614854009
11	77	LA CHAPELLE-IGER	2.990215	48.652431	163.6256304577
11	77	LA CHAPELLE-LA-REINE	2.568934	48.314078	2486.9626398935
11	77	LA CHAPELLE-RABLAIS	2.97164	48.5109769	945.8888544508
11	77	ARVILLE	2.547927	48.188176	143.191406498
11	77	LA CHAPELLE-SAINT-SULPICE	3.179201	48.554741	208.5123860779
11	77	LES CHAPELLES-BOURBON	2.841187	48.741496	417.6324645066
11	77	LA CHAPELLE-MOUTILS	3.38993	48.774747	364.7740461223
11	77	CHARMENTRAY	2.7771469	48.946671	261.9209097004
11	77	CHARNY	2.76115	48.970901	1180.9224575841
11	77	CHARTRETTES	2.699565	48.488211	2515.6600884781
11	77	CHARTRONGES	3.2695439	48.74519	270.3995001737
11	77	CHATEAUBLEAU	3.108398	48.5880269	325.8268839109
11	77	CHATEAU-LANDON	2.704426	48.150232	2926.2973814877
11	78	LES ALLUETS-LE-ROI	1.918995	48.91366	1140.075612601
11	78	BREUIL-BOIS-ROBERT	1.716432	48.945199	714.7278699694
11	78	BREVAL	1.532795	48.945514	1982.3642816038
11	78	LES BREVIAIRES	1.814019	48.707639	1154.9299690512
11	78	BRUEIL-EN-VEXIN	1.815091	49.031709	705.2437931726
11	78	BUC	2.123618	48.771808	5282.1262689922
11	78	BUCHELAY	1.678852	48.983085	2100.6263612462
11	78	BULLION	1.99732	48.621798	1924.5622104245
11	78	CARRIERES-SOUS-POISSY	2.037356	48.945484	14647.3744278982
11	78	CARRIERES-SUR-SEINE	2.178685	48.911292	16375.4143909931
11	78	LA CELLE-LES-BORDES	1.966916	48.642752	942.0230010938
11	78	LA CELLE-SAINT-CLOUD	2.132504	48.849766	20616.8930878361
11	78	CERNAY-LA-VILLE	1.976231	48.673864	1676.7002369337
11	78	ANDELU	1.823916	48.87905	517.1262265747
11	78	CHAMBOURCY	2.040137	48.906272	6197.2171683266
11	78	CHANTELOUP-LES-VIGNES	2.030051	48.978825	9954.9104134047
11	78	CHAPET	1.933828	48.967085	1212.8659392898
11	78	CHATOU	2.160098	48.896391	30510.1294697294
11	78	CHAUFOUR-LES-BONNIERES	1.484257	49.0160399	406.8174816842
11	78	ANDRESY	2.051033	48.979048	12279.9132860152
11	78	CHAVENAY	1.987591	48.853426	1887.2656258645
11	78	LE CHESNAY	2.130544	48.825415	29646.0854212941
11	78	CHEVREUSE	2.0406559	48.707733	5843.5637893859
11	78	CHOISEL	2.018651	48.686892	505.7116783845
11	78	CIVRY-LA-FORET	1.615467	48.866916	333.8504950842
11	78	CLAIREFONTAINE-EN-YVELINES	1.908489	48.61237	740.2249192726
11	78	LES CLAYES-SOUS-BOIS	1.976374	48.82342	17743.8461088779
11	78	COIGNIERES	1.916261	48.750285	4742.205942951
11	78	CONDE-SUR-VESGRE	1.66073	48.741906	1045.0291682814
11	78	CONFLANS-SAINTE-HONORINE	2.09178	49.000275	34578.3658993098
11	78	COURGENT	1.662656	48.891236	356.5873872436
11	78	CRAVENT	1.490713	48.990537	410.3613249734
11	78	CRESPIERES	1.918497	48.880904	1704.219489638
11	78	CROISSY-SUR-SEINE	2.142746	48.878426	9862.8373285095
11	78	DAMMARTIN-EN-SERVE	1.619015	48.90341	988.0148042702
11	78	DAMPIERRE-EN-YVELINES	1.984545	48.705142	1183.7409298671
11	78	DANNEMARIE	1.6034219	48.762168	229.7930891331
11	78	DAVRON	1.945969	48.866403	371.5719921567
11	78	ARNOUVILLE-LES-MANTES	1.732098	48.911278	836.7486471431
11	78	ECQUEVILLY	1.924235	48.9492059	4098.0653713269
11	78	ELANCOURT	1.960077	48.782907	27930.0312580071
11	78	EMANCE	1.730406	48.590294	816.0751649071
11	78	EPONE	1.812542	48.957802	6142.0547075821
11	78	LES ESSARTS-LE-ROI	1.899287	48.715933	6351.8406282959
11	78	L'	ETANG-LA-VILLE	2.07365	48.87007	4875.7950780012
11	78	EVECQUEMONT	1.943799	49.014204	794.6332014121
11	78	LA FALAISE	1.831813	48.944315	611.0909824575
11	78	FAVRIEUX	1.642164	48.943585	146.26493723
11	78	FEUCHEROLLES	1.972612	48.872724	2983.5739487941
11	78	FLACOURT	1.646339	48.9282139	154.8251191033
11	78	FLEXANVILLE	1.737576	48.853663	556.4168049452
11	78	FLINS-NEUVE-EGLISE	1.578668	48.8906149	166.8251632297
11	78	FLINS-SUR-SEINE	1.87006	48.962687	2436.2472373925
11	78	FOLLAINVILLE-DENNEMONT	1.713804	49.021607	1794.0246162122
11	78	FONTENAY-LE-FLEURY	2.046222	48.810638	12638.1473842691
11	78	FONTENAY-MAUVOISIN	1.648875	48.965184	454.6792147313
11	78	FONTENAY-SAINT-PERE	1.757549	49.027329	1488.6642300002
11	78	FOURQUEUX	2.064573	48.886308	3883.8285890544
11	78	FRENEUSE	1.600624	49.048021	3927.1641400018
11	78	GAILLON-SUR-MONTCIENT	1.895781	49.029753	672.8480599168
11	78	GALLUIS	1.794628	48.796361	1147.3368266957
11	78	GAMBAIS	1.675797	48.773843	2477.0556918111
11	78	GAMBAISEUIL	1.732794	48.756855	65.8682987618
11	78	GARANCIERES	1.756772	48.821772	2306.1245066607
11	78	GARGENVILLE	1.809326	48.991435	6707.0752147607
11	78	GAZERAN	1.77541	48.636117	1182.6197245923
11	78	GOMMECOURT	1.593841	49.075211	662.508228957
11	78	GOUPILLIERES	1.760814	48.87676	435.650404503
11	78	GOUSSONVILLE	1.764587	48.91997	607.1402115282
11	78	GRANDCHAMP	1.621088	48.719453	323.2341500972
11	78	GRESSEY	1.609202	48.831853	544.059939773
11	78	GROSROUVRE	1.760775	48.7822249	892.4411738125
11	78	AUBERGENVILLE	1.855891	48.9591319	11988.8017004102
11	78	GUERNES	1.644093	49.016471	1017.6150152806
11	78	GUERVILLE	1.735422	48.944263	2020.0310319144
11	78	GUITRANCOURT	1.778629	49.008153	627.2635996732
11	78	GUYANCOURT	2.075323	48.762895	28592.0357138565
11	78	HARDRICOURT	1.896887	49.0058719	2021.4124509085
11	78	ABLIS	1.834473	48.517311	3281.7281370095
11	78	AUFFARGIS	1.887343	48.700578	1998.571878512
11	78	HARGEVILLE	1.750297	48.897002	405.4973062828
11	78	LA HAUTEVILLE	1.625688	48.704875	189.0960909904
11	78	HERBEVILLE	1.887103	48.905937	289.6757468967
11	78	HERMERAY	1.675408	48.637529	967.1711410052
11	78	AUFFREVILLE-BRASSEUIL	1.710307	48.954607	580.2538992755
11	78	HOUDAN	1.601126	48.789808	3328.3033000444
11	78	HOUILLES	2.18888	48.926916	31302.2967604909
11	78	ISSOU	1.79347	48.989101	4691.8375316289
11	78	JAMBVILLE	1.851334	49.047832	819.8226829527
11	78	JEUFOSSE	1.546488	49.035124	446.95970988
11	78	JOUARS-PONTCHARTRAIN	1.902951	48.801322	5436.9305088702
11	78	JOUY-EN-JOSAS	2.169007	48.764545	8205.9189183022
11	78	JOUY-MAUVOISIN	1.648869	48.974854	517.9759495067
11	78	JUMEAUVILLE	1.786977	48.91117	622.9119842812
11	78	JUZIERS	1.845523	48.993291	3778.1726081711
11	78	LAINVILLE-EN-VEXIN	1.816187	49.05962	767.665250867
11	78	AULNAY-SUR-MAULDRE	1.84002	48.929369	1191.2961032051
11	78	LEVIS-SAINT-NOM	1.9494	48.7222	1721.4396105838
11	78	LIMAY	1.735384	48.992181	15632.0106570856
11	78	LIMETZ-VILLEZ	1.545572	49.061039	1959.8328386808
11	78	AUTEUIL	1.817169	48.841446	898.1630314097
11	78	LES LOGES-EN-JOSAS	2.140358	48.764287	1561.092064739
11	78	LOMMOYE	1.51816	48.998581	630.5590021744
11	78	LONGNES	1.586142	48.921101	1469.4241147831
11	78	LONGVILLIERS	1.9935607	48.5784916	520.3480631484
11	78	LOUVECIENNES	2.112527	48.86189	7305.8713907747
11	78	MAGNANVILLE	1.68413	48.969534	5616.1065488215
11	78	MAGNY-LES-HAMEAUX	2.053208	48.741829	9189.5334599372
11	78	MAISONS-LAFFITTE	2.1423899	48.947545	22905.998137821
11	78	AUTOUILLET	1.804952	48.845714	505.0681945545
11	78	MANTES-LA-JOLIE	1.714958	48.989323	42607.3675464425
11	78	MANTES-LA-VILLE	1.713371	48.978154	18501.6113014555
11	78	MARCQ	1.815577	48.862279	737.7396035365
11	78	MAREIL-LE-GUYON	1.853074	48.790519	446.1207687614
11	78	MAREIL-MARLY	2.076817	48.882174	3639.7120394429
11	78	MAREIL-SUR-MAULDRE	1.865075	48.894471	1842.6976510695
11	78	MARLY-LE-ROI	2.097727	48.868389	16870.5151699274
11	78	MAULE	1.849405	48.909203	5917.422083552
11	78	MAULETTE	1.6173789	48.793214	774.3640368173
11	78	MAURECOURT	2.06347	48.996211	4356.7514211789
11	78	MAUREPAS	1.945326	48.7623589	18922.4070907073
11	78	MEDAN	1.995888	48.952913	1468.3921645535
11	78	MENERVILLE	1.603031	48.954306	199.333157286
11	78	MERE	1.819789	48.787755	1676.1237151342
11	78	MERICOURT	1.6289499	49.036021	401.7194286062
11	78	LE MESNIL-LE-ROI	2.123343	48.924857	6369.4884222326
11	78	LE MESNIL-SAINT-DENIS	1.965686	48.740132	6788.1466296844
11	78	LES MESNULS	1.836899	48.756791	873.1505798981
11	78	MEULAN-EN-YVELINES	1.916319	49.008107	9020.5677623794
11	78	MEZIERES-SUR-SEINE	1.803215	48.954992	3400.4457110547
11	78	MEZY-SUR-SEINE	1.880659	48.999663	1916.7523978365
11	78	MILLEMONT	1.74548	48.809105	262.5176111779
11	78	MILON-LA-CHAPELLE	2.047951	48.726878	325.9255794885
11	78	MITTAINVILLE	1.645603	48.669746	651.7209767414
11	78	MOISSON	1.669186	49.072929	950.9251674074
11	78	MONDREVILLE	1.553279	48.902726	323.0056265424
11	78	MONTAINVILLE	1.860079	48.882419	573.3150460733
11	78	MONTALET-LE-BOIS	1.830065	49.0460629	317.5421549548
11	78	MONTCHAUVET	1.630811	48.891679	301.3827319743
11	78	MONTESSON	2.149777	48.908587	15515.3227751239
11	78	MONTFORT-L'AMAURY	1.815425	48.772563	3066.672050996
11	78	MONTIGNY-LE-BRETONNEUX	2.031426	48.7664649	31782.4314489186
11	78	BAILLY	2.080901	48.8366339	4051.8061823073
11	78	MORAINVILLIERS	1.93633	48.92903	2405.6256038015
11	78	MOUSSEAUX-SUR-SEINE	1.648859	49.043743	628.6285972626
11	78	MULCENT	1.651792	48.878825	113.8471863029
11	78	LES MUREAUX	1.912178	48.990181	32416.4376740529
11	78	NEAUPHLE-LE-CHATEAU	1.898749	48.813651	3000.1306695614
11	78	NEAUPHLE-LE-VIEUX	1.863168	48.814745	673.3697413736
11	78	NEAUPHLETTE	1.527162	48.93044	920.6930627093
11	78	NEZEL	1.839768	48.942757	1002.7679461951
11	78	NOISY-LE-ROI	2.064579	48.843815	7667.2425497409
11	78	OINVILLE-SUR-MONTCIENT	1.852215	49.029116	1074.1156830909
11	78	ORCEMONT	1.811101	48.592524	854.0160289194
11	78	ORGERUS	1.700769	48.83858	2400.7480713959
11	78	ORGEVAL	1.96978	48.918524	6104.855709277
11	78	ORPHIN	1.781585	48.578576	899.0163506076
11	78	ORSONVILLE	1.836418	48.476502	362.4162106516
11	78	ORVILLIERS	1.642373	48.8587459	653.1550420492
11	78	OSMOY	1.715326	48.862447	415.0397685676
11	78	PARAY-DOUAVILLE	1.876396	48.463315	258.2791804611
11	78	BAZAINVILLE	1.666898	48.80395	1396.7933960201
11	78	LE PECQ	2.106434	48.897267	16351.6747698444
11	78	PERDREAUVILLE	1.626756	48.966914	611.5555480933
11	78	LE PERRAY-EN-YVELINES	1.847679	48.696146	6614.0937424551
11	78	BAZEMONT	1.86644	48.927866	1502.4631966587
11	78	PLAISIR	1.949075	48.817223	29938.3821988512
11	78	POIGNY-LA-FORET	1.753298	48.67627	1050.7074291114
11	78	POISSY	2.046982	48.929584	37932.2544042618
11	78	PONTHEVRARD	1.911544	48.552612	631.5601010996
11	78	ACHERES	2.0700219	48.960796	19626.5583849554
11	78	BAZOCHES-SUR-GUYONNE	1.859988	48.778374	618.2272031218
11	78	PORCHEVILLE	1.776713	48.971683	2794.5842838104
11	78	LE PORT-MARLY	2.110156	48.880777	4583.6501314582
11	78	PORT-VILLEZ	1.5235129	49.061904	251.6487246625
11	78	PRUNAY-LE-TEMPLE	1.6735549	48.861682	390.6073170561
11	78	PRUNAY-EN-YVELINES	1.796312	48.52863	781.6315602212
11	78	LA QUEUE-LES-YVELINES	1.765638	48.805027	2210.7120807711
11	78	RAIZEUX	1.68241	48.623856	851.8357266444
11	78	RAMBOUILLET	1.829079	48.643868	26181.6606647968
11	78	RENNEMOULIN	2.042745	48.834453	127.4089709358
11	78	RICHEBOURG	1.636605	48.823057	1458.3127502255
11	78	ROCHEFORT-EN-YVELINES	1.988701	48.584928	993.5093110416
11	78	ROCQUENCOURT	2.1107619	48.837144	3570.519990885
11	78	ROLLEBOISE	1.601097	49.01926	394.0216475847
11	78	BEHOUST	1.721699	48.830272	480.3019859829
11	78	ROSAY	1.679647	48.915291	371.7906411355
11	78	ROSNY-SUR-SEINE	1.633063	49.000847	5463.8490402906
11	78	SAILLY	1.804241	49.042131	357.6508135478
11	78	SAINT-ARNOULT-EN-YVELINES	1.940096	48.571308	6082.4200142269
11	78	SAINT-CYR-L'ECOLE	2.0657	48.806421	18118.5376854592
11	78	SAINT-FORGET	1.9969	48.7083	457.6394028678
11	78	SAINT-GERMAIN-DE-LA-GRANGE	1.898947	48.833685	1880.1524161456
11	78	SAINT-GERMAIN-EN-LAYE	2.093761	48.898908	41939.7812524746
11	78	SAINT-HILARION	1.733458	48.620028	920.3869380047
11	78	SAINT-ILLIERS-LA-VILLE	1.543047	48.9779259	289.8088261125
11	78	SAINT-ILLIERS-LE-BOIS	1.507599	48.957878	433.0700521754
11	78	SAINT-LAMBERT	2.0208499	48.731672	412.199948527
11	78	SAINT-LEGER-EN-YVELINES	1.763963	48.721261	1483.4529910253
11	78	SAINT-MARTIN-DE-BRETHENCOURT	1.928552	48.509194	600.7628669644
11	78	SAINT-MARTIN-DES-CHAMPS	1.717082	48.881815	338.3098013028
11	78	SAINT-MARTIN-LA-GARENNE	1.68857	49.040163	933.6053258237
11	78	SAINTE-MESME	1.960962	48.531548	891.0085756214
11	78	BENNECOURT	1.570031	49.04134	1720.9571274048
11	78	SAINT-NOM-LA-BRETECHE	2.017617	48.856631	4949.7879033345
11	78	SAINT-REMY-LES-CHEVREUSE	2.07177	48.704527	7886.6455162901
11	78	SAINT-REMY-L'HONORE	1.874425	48.754606	1389.8475563914
11	78	SARTROUVILLE	2.158431	48.941106	51707.6836184721
11	78	SAULX-MARCHAIS	1.837164	48.837981	907.6821434849
11	78	SENLISSE	1.981015	48.686739	547.8594577511
11	78	SEPTEUIL	1.680616	48.892612	2183.1054720555
11	78	SOINDRES	1.6751259	48.95746	550.2554988681
11	78	ADAINVILLE	1.652938	48.722747	718.1031230536
11	78	SONCHAMP	1.876454	48.576346	1606.7880744431
11	78	TACOIGNIERES	1.67427	48.835766	1044.498364577
11	78	LE TARTRE-GAUDRAN	1.6027579	48.69757	30.7454509197
11	78	LE TERTRE-SAINT-DENIS	1.6114679	48.94147	103.0478149657
11	78	TESSANCOURT-SUR-AUBETTE	1.921064	49.025506	915.5168351424
11	78	THIVERVAL-GRIGNON	1.9177	48.849581	1062.365624677
11	78	THOIRY	1.794903	48.865263	1149.6383117076
11	78	TILLY	1.575533	48.881929	532.0097960318
11	78	BEYNES	1.874855	48.852845	7981.3122642478
11	78	TRAPPES	2.001844	48.776731	29505.4747433726
11	78	LE TREMBLAY-SUR-MAULDRE	1.878826	48.771953	1012.4066095032
11	78	TRIEL-SUR-SEINE	2.005531	48.989382	11732.3789813654
11	78	VAUX-SUR-SEINE	1.965047	49.009778	4859.4128396079
11	78	VELIZY-VILLACOUBLAY	2.190408	48.787899	20079.8843973168
11	78	VERNEUIL-SUR-SEINE	1.975419	48.979317	15370.859614818
11	78	VERNOUILLET	1.983023	48.973699	8958.3750339393
11	78	LA VERRIERE	1.949322	48.7550809	6201.9929524083
11	78	VERSAILLES	2.130122	48.801408	87446.9005638265
11	78	VERT	1.692156	48.941224	812.397852301
11	78	LE VESINET	2.134716	48.894198	16510.1164856728
11	78	VICQ	1.834947	48.815278	344.6164019141
11	78	VIEILLE-EGLISE-EN-YVELINES	1.875431	48.67022	834.3759216753
11	78	LA VILLENEUVE-EN-CHEVRIE	1.527883	49.0146609	555.6255160419
11	78	VILLENNES-SUR-SEINE	1.997421	48.937191	5098.2556967304
11	78	VILLEPREUX	2.005269	48.8301019	9596.2294672099
11	78	VILLETTE	1.69235	48.925588	507.2070196098
11	78	BLARU	1.478589	49.048357	962.7876126622
11	78	VILLIERS-LE-MAHIEU	1.772269	48.860204	766.9539285342
11	78	VILLIERS-SAINT-FREDERIC	1.891563	48.819381	2716.7151487836
11	78	VIROFLAY	2.173231	48.79966	15923.0447548487
11	78	VOISINS-LE-BRETONNEUX	2.049289	48.760057	11328.0300825107
11	78	AIGREMONT	2.019584	48.903646	1201.2751967439
11	78	BOINVILLE-EN-MANTOIS	1.756904	48.9302319	300.902257982
11	78	BOINVILLE-LE-GAILLARD	1.869763	48.491591	643.5022904465
11	78	BOINVILLIERS	1.6630259	48.923539	255.8706624953
11	78	BOIS-D'ARCY	2.022188	48.80598	14184.4403016991
11	78	BOISSETS	1.581036	48.8616249	297.7275666644
11	78	LA BOISSIERE-ECOLE	1.647959	48.680797	763.676831593
11	78	BOISSY-MAUVOISIN	1.583041	48.969146	647.6782549087
11	78	BOISSY-SANS-AVOIR	1.794366	48.820358	608.6803674927
11	78	BONNELLES	2.028108	48.618315	1885.7573040926
11	78	BONNIERES-SUR-SEINE	1.578521	49.037452	4125.9956407574
11	78	ALLAINVILLE	1.897552	48.456766	292.752157629
11	78	BOUAFLE	1.901421	48.968665	2227.0135737422
11	78	BOUGIVAL	2.138909	48.862754	8402.8107586221
11	78	BOURDONNE	1.663117	48.757209	474.3612404496
11	91	ABBEVILLE-LA-RIVIERE	2.167515	48.346479	289.0361361121
11	91	BOUVILLE	2.275004	48.431671	670.2534962682
11	91	BRETIGNY-SUR-ORGE	2.30604	48.611486	22578.9196784033
11	91	BREUILLET	2.17112	48.566131	8585.0362965817
11	91	BREUX-JOUY	2.1779	48.5614	1185.5531901173
11	91	BRIERES-LES-SCELLES	2.139139	48.457707	1000.8179366176
11	91	BRIIS-SOUS-FORGES	2.123584	48.62436	3290.3870233824
11	91	BROUY	2.279372	48.316603	126.1631795616
11	91	BRUNOY	2.504543	48.698071	26288.9458116673
11	91	BRUYERES-LE-CHATEL	2.192499	48.593388	3078.8695980294
11	91	BUNO-BONNEVAUX	2.3914399	48.378686	420.570890449
11	91	BURES-SUR-YVETTE	2.163977	48.696893	9501.086675716
11	91	CERNY	2.328345	48.47538	3255.8475098492
11	91	CHALO-SAINT-MARS	2.067146	48.426587	1145.5195161093
11	91	CHALOU-MOULINEUX	2.022571	48.383727	412.0932602209
11	91	CHAMARANDE	2.220898	48.516505	1074.913908833
11	91	CHAMPCUEIL	2.445028	48.515058	2776.979082377
11	91	CHAMPLAN	2.277442	48.708249	2488.9720358688
11	91	CHAMPMOTTEUX	2.321098	48.342977	398.8381614156
11	91	CHATIGNONVILLE	1.929521	48.46862	52.594050074
11	91	CHAUFFOUR-LES-ETRECHY	2.168702	48.50355	135.1819009922
11	91	CHEPTAINVILLE	2.275989	48.547175	1990.6898570493
11	91	CHEVANNES	2.438571	48.533959	1623.8242215896
11	91	ANGERVILLE	1.998318	48.311206	3464.2564361345
11	91	CHILLY-MAZARIN	2.310271	48.705134	18806.6718413299
11	91	ANGERVILLIERS	2.055701	48.59272	1631.4703508832
11	91	CORBEIL-ESSONNES	2.474805	48.6102599	42370.2501052773
11	91	CORBREUSE	1.960147	48.495968	1769.7487163989
11	91	LE COUDRAY-MONTCEAUX	2.485767	48.565903	5059.5072234727
11	91	COURANCES	2.4748275	48.4403861	342.1404120745
11	91	COURCOURONNES	2.407091	48.617871	12947.3908936728
11	91	COURDIMANCHE-SUR-ESSONNE	2.378623	48.41717	281.0039248923
11	91	COURSON-MONTELOUP	2.14371	48.598137	560.5582790787
11	91	CROSNE	2.461891	48.720171	9416.8793931505
11	91	DANNEMOIS	2.474807	48.452186	848.5000972539
11	91	D'HUISON-LONGUEVILLE	2.3229289	48.454747	1379.8184704866
11	91	DOURDAN	2.0152549	48.529171	9583.532845555
11	91	DRAVEIL	2.408154	48.685388	28295.2462622924
11	91	ECHARCON	2.404385	48.570058	803.3996040561
11	91	EGLY	2.222247	48.580216	5246.5891538979
11	91	ARPAJON	2.246237	48.589172	10461.3508766027
11	91	EPINAY-SOUS-SENART	2.515825	48.693052	12657.359351605
11	91	EPINAY-SUR-ORGE	2.323859	48.672714	10220.6785359095
11	91	ARRANCOURT	2.161541	48.342037	125.813268188
11	91	ESTOUCHES	2.134089	48.302104	221.1752038298
11	91	ETAMPES	2.16142	48.434416	21979.4401328722
11	91	ETIOLLES	2.47773	48.634545	3140.8627173676
11	91	ETRECHY	2.190566	48.493478	6256.3294171393
11	91	EVRY	2.441782	48.629828	52268.8722799698
11	91	LA FERTE-ALAIS	2.348072	48.481582	3942.6178717757
11	91	FLEURY-MEROGIS	2.36675	48.630742	8931.6117330357
11	91	FONTAINE-LA-RIVIERE	2.150776	48.357909	210.3435111746
11	91	FONTENAY-LES-BRIIS	2.155453	48.619736	1754.2961863911
11	91	FONTENAY-LE-VICOMTE	2.399658	48.547372	1403.4403596486
11	91	LA FORET-LE-ROI	2.046166	48.477907	515.1461928344
11	91	LA FORET-SAINTE-CROIX	2.23006	48.384305	165.6095866795
11	91	FORGES-LES-BAINS	2.099319	48.628213	3764.8416468113
11	91	ATHIS-MONS	2.38479	48.7092979	30636.3848662006
11	91	GIF-SUR-YVETTE	2.134078	48.701844	20989.2297988708
11	91	GIRONVILLE-SUR-ESSONNE	2.380786	48.37227	852.8106894074
11	91	GOMETZ-LA-VILLE	2.126976	48.671414	1349.9147685246
11	91	GOMETZ-LE-CHATEL	2.139637	48.678995	2395.1980070133
11	91	LES GRANGES-LE-ROI	2.019845	48.503453	1054.1326113819
11	91	GRIGNY	2.385166	48.656473	27944.8913773784
11	91	GUIBEVILLE	2.271401	48.566984	709.3566398443
11	91	GUIGNEVILLE-SUR-ESSONNE	2.355061	48.473095	982.4382000156
11	91	GUILLERVAL	2.102564	48.364606	764.2021675724
11	91	IGNY	2.2228629	48.73753	10415.2440272837
11	91	ITTEVILLE	2.339731	48.514297	6653.3448346146
11	91	JANVILLE-SUR-JUINE	2.259886	48.513508	1864.7769371246
11	91	JANVRY	2.153917	48.647665	611.4085414325
11	91	JUVISY-SUR-ORGE	2.37216	48.691738	15021.4237619098
11	91	LARDY	2.265141	48.520586	5899.948522716
11	91	LEUDEVILLE	2.329141	48.572629	1338.4252482223
11	91	LEUVILLE-SUR-ORGE	2.263801	48.616053	4116.9140702823
11	91	LIMOURS	2.077934	48.645465	6206.2808430237
11	91	LINAS	2.267328	48.631625	6830.6739989464
11	91	LISSES	2.425046	48.597094	6916.8358560848
11	91	LONGJUMEAU	2.305675	48.692252	21490.7165752489
11	91	LONGPONT-SUR-ORGE	2.285823	48.639013	6817.502401115
11	91	AUTHON-LA-PLAINE	1.95738	48.45134	371.0602255844
11	91	MAISSE	2.377065	48.3942989	2709.9246580675
11	91	MARCOUSSIS	2.2298809	48.642446	7690.4998863475
11	91	AUVERNAUX	2.496204	48.528753	362.3321691921
11	91	MAROLLES-EN-BEAUCE	2.2016589	48.374862	223.2536945652
11	91	MAROLLES-EN-HUREPOIX	2.299143	48.564084	4725.3874347828
11	91	MASSY	2.27137	48.730756	41581.7134705017
11	91	MAUCHAMPS	2.197565	48.528751	295.2242076182
11	91	AUVERS-SAINT-GEORGES	2.217642	48.492926	1219.9748793312
11	91	MENNECY	2.434436	48.566784	13556.4810699896
11	91	MEREVILLE	2.093772	48.31597	3222.9372177679
11	91	MEROBERT	2.0049579	48.416447	558.3708338739
11	91	MESPUITS	2.27594	48.357671	180.2447815835
11	91	MILLY-LA-FORET	2.468334	48.403304	4703.2329717753
11	91	MOIGNY-SUR-ECOLE	2.457289	48.433029	1236.842186465
11	91	AVRAINVILLE	2.246488	48.56214	701.2713614501
11	91	LES MOLIERES	2.068394	48.6724279	1946.986718306
11	91	MONDEVILLE	2.416144	48.490269	640.7867038885
11	91	MONNERVILLE	2.043955	48.346163	417.8516179261
11	91	MONTGERON	2.4604529	48.703859	22990.2437658611
11	91	MONTLHERY	2.271502	48.638324	6820.0021427887
11	91	MORANGIS	2.336018	48.7022059	12132.3942883433
11	91	MORIGNY-CHAMPIGNY	2.181743	48.446833	4431.7641945355
11	91	MORSANG-SUR-ORGE	2.345709	48.661766	21750.6699885902
11	91	MORSANG-SUR-SEINE	2.493202	48.570649	539.9498891558
11	91	BALLAINVILLIERS	2.29537	48.67509	4142.2680653211
11	91	NAINVILLE-LES-ROCHES	2.494361	48.505248	427.5379443401
11	91	BALLANCOURT-SUR-ESSONNE	2.388169	48.524552	7550.0802239603
11	91	LA NORVILLE	2.26603	48.583018	3925.6868437859
11	91	NOZAY	2.242762	48.660155	4801.8224847662
11	91	OLLAINVILLE	2.220474	48.591234	4675.3204260374
11	91	ONCY-SUR-ECOLE	2.475284	48.381548	947.4458581049
11	91	ORMOY	2.446631	48.57614	1886.0373897016
11	91	ORMOY-LA-RIVIERE	2.149163	48.404081	950.5453448326
11	91	BAULNE	2.35972	48.492306	1311.3675899897
11	91	ORSAY	2.189617	48.697161	16127.6808804993
11	91	ORVEAU	2.296942	48.448853	198.8689472615
11	91	PALAISEAU	2.245748	48.714509	30645.4517548065
11	91	PARAY-VIEILLE-POSTE	2.362614	48.712928	7091.7508788565
11	91	PECQUEUSE	2.050281	48.6466629	584.0241193369
11	91	LE PLESSIS-PATE	2.325475	48.612129	4463.1454576656
11	91	PLESSIS-SAINT-BENOIST	2.005134	48.4449759	316.0980851275
11	91	PRUNAY-SUR-ESSONNE	2.373934	48.356927	313.2223856389
11	91	PUISELET-LE-MARAIS	2.262666	48.404684	253.1984953118
11	91	PUSSAY	1.993903	48.349935	1862.4526529922
11	91	QUINCY-SOUS-SENART	2.540747	48.671191	7918.9204199748
11	91	RICHARVILLE	2.002233	48.469709	423.4547010189
11	91	RIS-ORANGIS	2.410451	48.645663	27767.087873936
11	91	ROINVILLE	2.047055	48.531122	1269.0493793413
11	91	ROINVILLIERS	2.24126	48.356353	93.9314733827
11	91	SACLAS	2.126845	48.360987	1794.1211640758
11	91	SACLAY	2.180034	48.73668	2905.2341145899
11	91	SAINT-AUBIN	2.142002	48.714028	650.2920200938
11	91	SAINT-CHERON	2.128082	48.551204	4805.6463118061
11	91	SAINT-CYR-LA-RIVIERE	2.148859	48.354666	518.1129377746
11	91	SAINT-CYR-SOUS-DOURDAN	2.04271	48.56331	1014.7807370996
11	91	SAINT-ESCOBILLE	1.966988	48.429887	444.8376692918
11	91	SAINTE-GENEVIEVE-DES-BOIS	2.326838	48.642943	34397.7143907494
11	91	SAINT-GERMAIN-LES-ARPAJON	2.2554979	48.594204	9358.4294339313
11	91	SAINT-GERMAIN-LES-CORBEIL	2.492031	48.627498	6816.4178248502
11	91	SAINT-HILAIRE	2.07592	48.433465	336.8656431942
11	91	SAINT-JEAN-DE-BEAUREGARD	2.1635761	48.6611603	270.0550742164
11	91	SAINT-MAURICE-MONTCOURONNE	2.125295	48.581874	1650.3247882391
11	91	SAINT-MICHEL-SUR-ORGE	2.312884	48.63264	19874.5308624892
11	91	SAINT-PIERRE-DU-PERRAY	2.4952	48.6123	8268.43813048
11	91	SAINTRY-SUR-SEINE	2.4929009	48.5962419	5049.591377297
11	91	SAINT-SULPICE-DE-FAVIERES	2.178774	48.540321	329.6004744505
11	91	SAINT-VRAIN	2.334588	48.5416979	2763.2406447445
11	91	SAINT-YON	2.183599	48.5601429	895.8235307893
11	91	SAULX-LES-CHARTREUX	2.264733	48.686895	4836.1004830454
11	91	SAVIGNY-SUR-ORGE	2.349282	48.6851259	36969.2083023521
11	91	SERMAISE	2.080612	48.53667	1697.1722119616
11	91	SOISY-SUR-ECOLE	2.497111	48.4749679	1371.2935090279
11	91	SOISY-SUR-SEINE	2.453747	48.649862	7359.1611527569
11	91	SOUZY-LA-BRICHE	2.171272	48.535729	346.6081288975
11	91	CONGERVILLE-THIONVILLE	1.990539	48.385218	207.4349680459
11	91	TIGERY	2.503193	48.645389	2585.5404308251
11	91	TORFOU	2.226808	48.530867	273.8031973499
11	91	VALPUISEAUX	2.305556	48.396307	637.4868275473
11	91	LE VAL-SAINT-GERMAIN	2.059947	48.565612	1400.5401536254
11	91	VARENNES-JARCY	2.559778	48.678501	2451.0665844781
11	91	VAUGRIGNEUSE	2.120103	48.603098	1262.2565721929
11	91	VAUHALLAN	2.207353	48.734116	1936.0097967754
11	91	VAYRES-SUR-ESSONNE	2.353441	48.437736	908.8530277507
11	91	BIEVRES	2.214436	48.754517	5120.4544695596
11	91	VERRIERES-LE-BUISSON	2.266838	48.746318	15461.0507021195
11	91	VERT-LE-GRAND	2.359131	48.5732039	2491.1960537364
11	91	VERT-LE-PETIT	2.366759	48.5508359	2540.8478815978
11	91	VIDELLES	2.431015	48.464707	679.8885268724
11	91	VIGNEUX-SUR-SEINE	2.416924	48.700094	26944.7561540754
11	91	VILLABE	2.454831	48.589494	4725.7291068952
11	91	VILLEBON-SUR-YVETTE	2.236654	48.6964029	9469.2571132837
11	91	VILLECONIN	2.123585	48.514059	722.4320281118
11	91	LA VILLE-DU-BOIS	2.2688259	48.661072	7322.5593034767
11	91	VILLEJUST	2.236585	48.682353	2283.251447875
11	91	VILLEMOISSON-SUR-ORGE	2.329818	48.659906	6505.4103594843
11	91	BLANDY	2.257042	48.313335	127.6280629746
11	91	VILLENEUVE-SUR-AUVERS	2.248821	48.4743799	580.9930780986
11	91	VILLIERS-LE-BACLE	2.125206	48.725782	1201.2468326655
11	91	VILLIERS-SUR-ORGE	2.2994659	48.660053	3972.6463576671
11	91	VIRY-CHATILLON	2.375902	48.666218	31725.6362192633
11	91	WISSOUS	2.3278249	48.730843	5105.0900626558
11	91	BOIGNEVILLE	2.37142	48.334618	389.2001712449
11	91	YERRES	2.490967	48.712858	29424.2207092186
11	91	LES ULIS	2.16647	48.6792779	25416.2422244364
11	91	BOIS-HERPIN	2.234933	48.369762	79.9850316658
11	91	BOISSY-LA-RIVIERE	2.15571	48.3754	544.6885533934
11	91	BOISSY-LE-CUTTE	2.28207	48.469389	1318.7601779146
11	91	BOISSY-LE-SEC	2.090178	48.480713	629.7549939938
11	91	BOISSY-SOUS-SAINT-YON	2.209448	48.556569	3746.1409763087
11	91	BONDOUFLE	2.376663	48.612707	10049.6200715125
11	91	BOULLAY-LES-TROUX	2.046128	48.676402	660.4674543249
11	91	BOURAY-SUR-JUINE	2.299391	48.520637	1931.5191054842
11	91	BOUSSY-SAINT-ANTOINE	2.530174	48.6892489	6400.6018095666
11	91	BOUTERVILLIERS	2.056351	48.452677	367.8638763649
11	91	BOUTIGNY-SUR-ESSONNE	2.380786	48.437362	3062.5096518152
11	92	BOULOGNE-BILLANCOURT	2.237803	48.84325	113923.407622712
11	92	BOURG-LA-REINE	2.316374	48.780454	20276.0503070725
11	92	CHATENAY-MALABRY	2.270748	48.771896	32190.7698941521
11	92	ANTONY	2.302553	48.759255	60883.5251395756
11	92	CHATILLON	2.289387	48.804689	33124.1608917469
11	92	CHAVILLE	2.192418	48.808026	18491.9945734304
11	92	CLAMART	2.257289	48.799815	52482.2655640016
11	92	CLICHY	2.304768	48.904526	60492.5960132279
11	92	COLOMBES	2.248307	48.931179	85839.8296771839
11	92	COURBEVOIE	2.25929	48.900552	90586.3891209854
11	92	FONTENAY-AUX-ROSES	2.287181	48.789776	23912.9965018483
11	92	GARCHES	2.188703	48.846066	18317.6550636407
11	92	LA GARENNE-COLOMBES	2.244085	48.906535	27265.7051704679
11	92	GENNEVILLIERS	2.293275	48.925525	41194.690011179
11	92	ASNIERES-SUR-SEINE	2.285369	48.914155	82746.1551509798
11	92	ISSY-LES-MOULINEAUX	2.2743419	48.8245306	66114.8545119375
11	92	LEVALLOIS-PERRET	2.287864	48.893217	66452.3322153955
11	92	MALAKOFF	2.2977599	48.817275	31592.189988008
11	92	MARNES-LA-COQUETTE	2.162314	48.833108	1738.104381637
11	92	MEUDON	2.23847	48.812995	45239.5486806684
11	92	MONTROUGE	2.317384	48.816363	50460.22323565
11	92	NANTERRE	2.215331	48.892423	91245.3850639103
11	92	NEUILLY-SUR-SEINE	2.26851	48.884831	61036.2033451709
11	92	LE PLESSIS-ROBINSON	2.266257	48.780426	26320.5647694592
11	92	PUTEAUX	2.23964	48.884748	44986.1472430828
11	92	RUEIL-MALMAISON	2.17693	48.882767	79229.0651733293
11	92	SAINT-CLOUD	2.208115	48.847647	30273.3262402435
11	92	BAGNEUX	2.31002	48.796696	39469.8682602055
11	92	SCEAUX	2.295092	48.778016	19251.7583726837
11	92	SEVRES	2.2154219	48.82427	22790.0682481794
11	92	SURESNES	2.219033	48.869798	46846.0099923998
11	92	VANVES	2.288405	48.822484	26558.7708995178
11	92	VAUCRESSON	2.1624469	48.84389	8714.2616689535
11	92	VILLE-D'AVRAY	2.181255	48.822936	10647.0106552779
11	92	VILLENEUVE-LA-GARENNE	2.324789	48.936616	25739.010048637
11	92	BOIS-COLOMBES	2.269675	48.917402	28856.1815901098
11	93	AUBERVILLIERS	2.384049	48.912259	77947.2182125249
11	93	BONDY	2.481875	48.906008	54655.3720525836
11	93	LE BOURGET	2.425377	48.936752	14240.8125020642
11	93	CLICHY-SOUS-BOIS	2.546147	48.910899	29760.4836174673
11	93	COUBRON	2.577531	48.91625	4745.5288741519
11	93	LA COURNEUVE	2.398701	48.931422	37339.9235947457
11	93	DRANCY	2.445676	48.924298	67021.5905918672
11	93	DUGNY	2.416983	48.952179	11142.4187557267
11	93	EPINAY-SUR-SEINE	2.314739	48.955735	56050.5068456404
11	93	GAGNY	2.536518	48.8849159	38625.966937021
11	93	GOURNAY-SUR-MARNE	2.575786	48.862978	6177.8628118492
11	93	L'	ILE-SAINT-DENIS	2.336901	48.932535	7236.0155956139
11	93	LES LILAS	2.419452	48.881935	23058.9761368125
11	93	LIVRY-GARGAN	2.536118	48.91923	42342.7935456789
11	93	MONTFERMEIL	2.570773	48.902029	24835.8026995128
11	93	MONTREUIL	2.448451	48.863812	106312.220549733
11	93	NEUILLY-PLAISANCE	2.509142	48.865205	20609.099873401
11	93	AULNAY-SOUS-BOIS	2.497115	48.940974	82136.6848282778
11	93	NEUILLY-SUR-MARNE	2.528373	48.856898	33340.8483812982
11	93	NOISY-LE-GRAND	2.55261	48.848579	63752.3633268001
11	93	NOISY-LE-SEC	2.458625	48.892489	39443.2766906516
11	93	PANTIN	2.40963	48.894533	52765.5875775071
11	93	LES PAVILLONS-SOUS-BOIS	2.504403	48.90852	21416.0372685908
11	93	PIERREFITTE-SUR-SEINE	2.364077	48.967903	29070.4270715947
11	93	BAGNOLET	2.4234589	48.870364	34073.566017311
11	93	LE PRE-SAINT-GERVAIS	2.40557	48.885063	17761.3604317353
11	93	LE RAINCY	2.5231119	48.897386	13987.7922329074
11	93	ROMAINVILLE	2.435048	48.886112	26447.8555171524
11	93	ROSNY-SOUS-BOIS	2.485932	48.875661	41463.1093687304
11	93	SAINT-DENIS	2.357443	48.936181	109727.027409259
11	93	LE BLANC-MESNIL	2.46436	48.941345	52040.1959714389
11	93	SAINT-OUEN	2.333764	48.911856	47966.2969275123
11	93	SEVRAN	2.538716	48.93897	51539.9842548634
11	93	STAINS	2.384703	48.955387	35207.9128149849
11	93	TREMBLAY-EN-FRANCE	2.557211	48.979952	35533.5568691754
11	93	VAUJOURS	2.579918	48.9318839	6290.4347188362
11	93	VILLEMOMBLE	2.505069	48.886727	28476.7277419022
11	93	VILLEPINTE	2.542867	48.960226	35709.5410182235
11	93	VILLETANEUSE	2.347354	48.963476	13005.916536962
11	93	BOBIGNY	2.439712	48.908612	49229.2126958332
11	94	ABLON-SUR-SEINE	2.422815	48.723604	5282.4953969292
11	94	BONNEUIL-SUR-MARNE	2.487765	48.774755	16537.8262502811
11	94	BRY-SUR-MARNE	2.5236489	48.834913	14999.4275002327
11	94	CACHAN	2.331433	48.791855	28232.1149907514
11	94	CHAMPIGNY-SUR-MARNE	2.515556	48.817049	74823.0109138388
11	94	CHARENTON-LE-PONT	2.4158559	48.819918	28744.453508291
11	94	CHENNEVIERES-SUR-MARNE	2.53507	48.796124	17722.0872924319
11	94	ALFORTVILLE	2.422317	48.80093	46774.9106314277
11	94	CHEVILLY-LARUE	2.350648	48.767811	18749.3684209904
11	94	CHOISY-LE-ROI	2.4088759	48.762541	39675.8040200335
11	94	CRETEIL	2.455572	48.790367	91465.1903736431
11	94	ARCUEIL	2.334955	48.80486	20262.1763533091
11	94	FONTENAY-SOUS-BOIS	2.475907	48.851542	54368.844559839
11	94	FRESNES	2.326243	48.757205	24954.2993710493
11	94	GENTILLY	2.344688	48.8138999	17756.4376482953
11	94	L'	HAY-LES-ROSES	2.338084	48.7789659	29433.2433316901
11	94	BOISSY-SAINT-LEGER	2.514487	48.750043	16235.2939795189
11	94	IVRY-SUR-SEINE	2.38822	48.813055	58357.7189442488
11	94	JOINVILLE-LE-PONT	2.472043	48.821267	17503.0007761033
11	94	LE KREMLIN-BICETRE	2.356972	48.810108	26040.8313375093
11	94	LIMEIL-BREVANNES	2.492154	48.7461849	19300.8330033806
11	94	MAISONS-ALFORT	2.429443	48.801148	52860.6743720873
11	94	MANDRES-LES-ROSES	2.5460029	48.705816	4243.3842546735
11	94	MAROLLES-EN-BRIE	2.551714	48.73421	4566.9480305698
11	94	NOGENT-SUR-MARNE	2.481699	48.837631	31337.9012922294
11	94	NOISEAU	2.553189	48.774689	4676.9557308109
11	94	ORLY	2.401373	48.745193	21279.5405874029
11	94	ORMESSON-SUR-MARNE	2.541046	48.785694	9719.2856552445
11	94	PERIGNY	2.550822	48.695282	2366.2970529119
11	94	LE PERREUX-SUR-MARNE	2.504038	48.841386	32544.7229815572
11	94	LE PLESSIS-TREVISE	2.573903	48.808589	18964.0118648209
11	94	LA QUEUE-EN-BRIE	2.5754929	48.790857	11713.7069486505
11	94	RUNGIS	2.349936	48.749358	5408.1121353744
11	94	SAINT-MANDE	2.4178639	48.842832	23204.6776730843
11	94	SAINT-MAUR-DES-FOSSES	2.485429	48.8029439	77159.9440917271
11	94	SAINT-MAURICE	2.423655	48.8205669	14707.1844062422
11	94	SANTENY	2.572804	48.725288	3812.7887987506
11	94	SUCY-EN-BRIE	2.520598	48.768866	26275.401329807
11	94	THIAIS	2.387405	48.760344	29616.2716203823
11	94	VALENTON	2.459965	48.749736	12328.1083331617
11	94	VILLECRESNES	2.5310419	48.720478	9557.3903443327
11	94	VILLEJUIF	2.359279	48.792716	56192.5002102176
11	94	VILLENEUVE-LE-ROI	2.407557	48.732026	18686.5710370443
11	94	VILLENEUVE-SAINT-GEORGES	2.447488	48.7305769	31350.5890330961
11	94	VILLIERS-SUR-MARNE	2.546798	48.825787	27461.3694374297
11	94	VINCENNES	2.4394969	48.847759	49579.663602604
11	94	VITRY-SUR-SEINE	2.39851	48.792001	86921.9158020089
11	95	BRAY-ET-LU	1.661194	49.139487	981.0729029685
11	95	BREANCON	2.019796	49.142189	386.2119045688
11	95	AMBLEVILLE	1.697436	49.150717	392.9099213108
11	95	BRIGNANCOURT	1.943762	49.1374179	203.1568070084
11	95	BRUYERES-SUR-OISE	2.331063	49.157651	3214.0371533344
11	95	BUHY	1.692491	49.1929749	306.5016915856
11	95	AMENUCOURT	1.64178	49.106189	182.2556609646
11	95	BUTRY-SUR-OISE	2.195376	49.085028	2011.8718122826
11	95	CERGY	2.060325	49.035617	53837.5566149629
11	95	CHAMPAGNE-SUR-OISE	2.2350979	49.136089	4746.3393002351
11	95	LA CHAPELLE-EN-VEXIN	1.732004	49.183202	299.5943606838
11	95	ANDILLY	2.303938	49.008628	2568.1637778243
11	95	CHARMONT	1.790172	49.135382	27.3599866175
11	95	CHARS	1.937421	49.1604529	1739.637668003
11	95	CHATENAY-EN-FRANCE	2.459475	49.06751	70.1391599722
11	95	CHAUMONTEL	2.435195	49.129496	3254.8917983699
11	95	CHAUSSY	1.693459	49.122282	645.3725673389
11	95	CHAUVRY	2.270137	49.055486	299.7605416317
11	95	CHENNEVIERES-LES-LOUVRES	2.551651	49.045045	358.5415302754
11	95	CHERENCE	1.678023	49.091132	149.9803678257
11	95	CLERY-EN-VEXIN	1.853327	49.132675	383.977493917
11	95	COMMENY	1.886637	49.127099	372.9458246533
11	95	CONDECOURT	1.941515	49.039605	567.0163829448
11	95	CORMEILLES-EN-PARISIS	2.201292	48.973526	22643.0115977315
11	95	CORMEILLES-EN-VEXIN	2.021989	49.116418	1082.1310541155
11	95	ARGENTEUIL	2.2489499	48.947411	105346.245308746
11	95	COURCELLES-SUR-VIOSNE	2.0046149	49.0775379	304.6941515225
11	95	COURDIMANCHE	2.001199	49.034807	6245.4314191725
11	95	ARNOUVILLE	2.423662	48.980312	13239.9643002592
11	95	DEUIL-LA-BARRE	2.3272339	48.975751	21664.4505523733
11	95	DOMONT	2.326213	49.030343	14089.5690118472
11	95	ABLEIGES	1.981849	49.090358	954.18641403
11	95	EAUBONNE	2.2779189	48.992128	23872.4396060915
11	95	ECOUEN	2.378926	49.018834	7208.6816913102
11	95	ENGHIEN-LES-BAINS	2.3034849	48.9708759	12393.1416352851
11	95	ENNERY	2.108623	49.080177	2226.9891360166
11	95	EPIAIS-LES-LOUVRES	2.5569	49.031777	77.7933212341
11	95	EPIAIS-RHUS	2.064914	49.12338	617.3398442783
11	95	EPINAY-CHAMPLATREUX	2.414001	49.08507	63.5998535292
11	95	ERAGNY	2.094985	49.02458	18016.9291422038
11	95	ERMONT	2.258451	48.989071	27097.2879744879
11	95	EZANVILLE	2.360491	49.038069	9086.7284751628
11	95	ARRONVILLE	2.114574	49.182249	665.2277271992
11	95	ARTHIES	1.788784	49.094772	291.6738513524
11	95	FONTENAY-EN-PARISIS	2.4513189	49.05297	1881.6049656439
11	95	FOSSES	2.515927	49.098699	9632.0437379295
11	95	FRANCONVILLE	2.229632	48.986011	33924.1163270328
11	95	FREMAINVILLE	1.866658	49.065909	495.6706115302
11	95	FREMECOURT	1.997904	49.120282	553.1298375955
11	95	FREPILLON	2.208852	49.051616	2805.8739906274
11	95	LA FRETTE-SUR-SEINE	2.178638	48.979897	4554.9766363494
11	95	FROUVILLE	2.151293	49.148555	357.4687236761
11	95	GADANCOURT	1.863349	49.103097	109.2965130053
11	95	ASNIERES-SUR-OISE	2.365054	49.138681	2593.7588340999
11	95	GARGES-LES-GONESSE	2.400724	48.97178	39862.9794708871
11	95	GENAINVILLE	1.753743	49.125094	545.797976831
11	95	GENICOURT	2.065229	49.08865	467.2335893396
11	95	GONESSE	2.460589	48.984332	26911.956609568
11	95	ATTAINVILLE	2.350381	49.062261	1717.4692993164
11	95	GOUSSAINVILLE	2.471236	49.030467	31212.8812633416
11	95	GOUZANGREZ	1.908098	49.11484	157.8330057586
11	95	GRISY-LES-PLATRES	2.05026	49.130277	595.7913294914
11	95	GROSLAY	2.350813	48.9857609	8321.2916387664
11	95	GUIRY-EN-VEXIN	1.85574	49.114786	145.1296748335
11	95	HARAVILLIERS	2.055066	49.17334	537.864587769
11	95	HAUTE-ISLE	1.658152	49.0832	344.8177609129
11	95	LE HEAULME	1.999646	49.167149	178.0115466958
11	95	HEDOUVILLE	2.169909	49.154803	249.5850609807
11	95	HERBLAY	2.165493	48.990006	26714.3893375988
11	95	HEROUVILLE	2.128767	49.100706	583.1955462781
11	95	HODENT	1.767704	49.145031	251.3030982039
11	95	L'	ISLE-ADAM	2.217872	49.112288	11358.6373095442
11	95	JAGNY-SOUS-BOIS	2.443311	49.078067	263.6391902645
11	95	JOUY-LE-MOUTIER	2.047209	49.015695	15293.0044754487
11	95	LABBEVILLE	2.143885	49.1357519	566.0960778596
11	95	LASSY	2.444794	49.096791	176.4228699959
11	95	LIVILLIERS	2.093464	49.100733	341.7324846715
11	95	LONGUESSE	1.926149	49.062112	508.6222620005
11	95	LOUVRES	2.506288	49.043002	8821.9865751724
11	95	LUZARCHES	2.421995	49.112677	4098.3405623655
11	95	MAFFLIERS	2.306934	49.077363	1674.6466067699
11	95	MAGNY-EN-VEXIN	1.787148	49.1517259	5509.1486970082
11	95	MAREIL-EN-FRANCE	2.425466	49.069364	701.142455449
11	95	MARGENCY	2.28818	49.002062	3039.6759855773
11	95	MARINES	1.982861	49.1452219	3225.3932844607
11	95	MARLY-LA-VILLE	2.499747	49.079367	5695.2509870104
11	95	MAUDETOUR-EN-VEXIN	1.77588	49.100119	201.8972560157
11	95	MENOUVILLE	2.110027	49.149529	79.144911623
11	95	MENUCOURT	1.98347	49.024581	5242.0073715256
11	95	AUVERS-SUR-OISE	2.17081	49.070852	6757.7615032552
11	95	MERIEL	2.205492	49.077124	4431.6124182712
11	95	MERY-SUR-OISE	2.184997	49.064451	9308.6663024534
11	95	LE MESNIL-AUBRY	2.393241	49.053038	957.7421187382
11	95	AVERNES	1.871917	49.087046	831.2556582503
11	95	MOISSELLES	2.341234	49.046168	1231.3575796952
11	95	BAILLET-EN-FRANCE	2.303016	49.058833	1995.8114074202
11	95	MONTGEROULT	2.006043	49.081586	417.0468793184
11	95	MONTIGNY-LES-CORMEILLES	2.187929	48.987412	19276.3201399572
11	95	MONTLIGNON	2.290857	49.016234	2558.7359351245
11	95	MONTMAGNY	2.34408	48.97088	14108.6285361365
11	95	MONTMORENCY	2.321878	48.989778	21695.1324301941
11	95	MONTREUIL-SUR-EPTE	1.678949	49.17597	456.1815932379
11	95	MONTSOULT	2.311955	49.068782	3432.861857394
11	95	MOURS	2.264505	49.131806	1456.4322743105
11	95	MOUSSY	1.913434	49.1351129	168.5094923457
11	95	NERVILLE-LA-FORET	2.278096	49.089788	663.3083200603
11	95	NESLES-LA-VALLEE	2.169665	49.128845	1774.3402178157
11	95	NEUILLY-EN-VEXIN	1.978021	49.168749	205.7608042271
11	95	NEUVILLE-SUR-OISE	2.063418	49.017179	1575.4220090241
11	95	NOINTEL	2.293932	49.130715	669.8285277492
11	95	NOISY-SUR-OISE	2.331174	49.136114	676.6373704569
11	95	NUCOURT	1.862136	49.161966	723.3818763845
11	95	BANTHELU	1.815097	49.127131	111.8843817582
11	95	OMERVILLE	1.718722	49.1395849	279.6477162103
11	95	OSNY	2.062715	49.0700239	16479.1090710039
11	95	PARMAIN	2.208519	49.113904	5580.040668686
11	95	LE PERCHAY	1.932449	49.110599	530.8925257874
11	95	PERSAN	2.269571	49.152233	10677.7471741505
11	95	PIERRELAYE	2.1547299	49.022697	7916.5765367439
11	95	PISCOP	2.345221	49.017897	688.1996917364
11	95	LE PLESSIS-BOUCHARD	2.234035	49.003807	7682.6506955756
11	95	LE PLESSIS-GASSOT	2.413923	49.033972	77.3552543659
11	95	LE PLESSIS-LUZARCHES	2.453775	49.095921	130.4439993745
11	95	PONTOISE	2.100645	49.050966	30307.8237077276
11	95	PRESLES	2.293002	49.112546	3807.8743220334
11	95	PUISEUX-EN-FRANCE	2.5010469	49.057229	3554.9693404512
11	95	BEAUCHAMP	2.191521	49.015751	8703.8636426475
11	95	PUISEUX-PONTOISE	2.018005	49.063705	479.7980857846
11	95	BEAUMONT-SUR-OISE	2.284601	49.141551	9036.3038851665
11	95	LA ROCHE-GUYON	1.629129	49.080652	418.3939128207
11	95	ROISSY-EN-FRANCE	2.516978	49.00363	2523.0579273674
11	95	RONQUEROLLES	2.220187	49.167308	887.9329615396
11	95	SAGY	1.950305	49.0496089	1177.2263068691
11	95	SAINT-BRICE-SOUS-FORET	2.356007	48.999429	14523.7811185539
11	95	LE BELLAY-EN-VEXIN	1.889214	49.1512079	226.1631289973
11	95	SAINT-CLAIR-SUR-EPTE	1.679768	49.20673	904.1654879348
11	95	SAINT-CYR-EN-ARTHIES	1.744319	49.061662	231.1904444116
11	95	BELLEFONTAINE	2.465854	49.097471	415.060278098
11	95	SAINT-GERVAIS	1.756873	49.165483	970.7007160613
11	95	SAINT-GRATIEN	2.286571	48.970259	20958.7121001691
11	95	BELLOY-EN-FRANCE	2.3716529	49.093886	1954.0786546594
11	95	SAINT-LEU-LA-FORET	2.247531	49.019157	14305.2701935921
11	95	SAINT-MARTIN-DU-TERTRE	2.35001	49.107764	2631.1130321282
11	95	SAINT-OUEN-L'AUMONE	2.105287	49.04313	24233.0738121517
11	95	SAINT-PRIX	2.262489	49.006469	7319.1231693332
11	95	BERNES-SUR-OISE	2.30078	49.166048	2267.2163733336
11	95	SAINT-WITZ	2.567086	49.091281	2951.8562908871
11	95	SANNOIS	2.256869	48.970782	25858.2012573341
11	95	SANTEUIL	1.9511398	49.1260403	589.1939806897
11	95	SARCELLES	2.378493	48.997347	59107.7170976661
11	95	BERVILLE	2.0726619	49.191619	309.8925742987
11	95	SERAINCOURT	1.865539	49.035358	1371.916730465
11	95	SEUGY	2.394678	49.121705	1008.4353250343
11	95	SOISY-SOUS-MONTMORENCY	2.299731	48.988506	17350.1422055415
11	95	BESSANCOURT	2.216363	49.038027	7122.0941607408
11	95	SURVILLIERS	2.542967	49.099034	3855.6723383206
11	95	TAVERNY	2.223507	49.027441	26155.0663720061
11	95	BETHEMONT-LA-FORET	2.249156	49.051392	393.3374997063
11	95	THEMERICOURT	1.904394	49.091357	269.7504600998
11	95	THEUVILLE	2.0721759	49.155902	19.6845647036
11	95	LE THILLAY	2.468417	49.007159	4090.6858145869
11	95	US	1.959952	49.105077	1335.6395755805
11	95	VALLANGOUJARD	2.114265	49.137678	654.2306297272
11	95	VALMONDOIS	2.190744	49.097092	1205.4893807612
11	95	BEZONS	2.215847	48.925687	28108.5387639422
11	95	VAUDHERLAND	2.4868929	49.000955	88.457645939
11	95	VAUREAL	2.023163	49.029373	13706.40789702
11	95	VEMARS	2.568682	49.068678	1961.5400340963
11	95	VETHEUIL	1.709642	49.061864	869.7250768885
11	95	VIARMES	2.3694829	49.125732	4821.8040753746
11	95	VIENNE-EN-ARTHIES	1.733372	49.06621	407.0059371334
11	95	VIGNY	1.933439	49.0834819	1091.4554194915
11	95	VILLAINES-SOUS-BOIS	2.357047	49.0763589	691.6766069294
11	95	VILLERON	2.541795	49.057372	683.026415098
11	95	VILLERS-EN-ARTHIES	1.732109	49.086358	468.3078652597
11	95	VILLIERS-ADAM	2.235	49.068338	857.1614591225
11	95	VILLIERS-LE-BEL	2.387981	49.007379	27429.4884327988
11	95	VILLIERS-LE-SEC	2.384715	49.073763	168.9486197655
11	95	WY-DIT-JOLI-VILLAGE	1.836178	49.102722	343.8943090733
11	95	BOISEMONT	2.002694	49.018472	729.8306775007
11	95	BOISSY-L'AILLERIE	2.032325	49.083897	1762.8350111381
11	95	AINCOURT	1.771272	49.073261	1069.9124802334
11	95	BONNEUIL-EN-FRANCE	2.431311	48.974259	652.9217967196
11	95	BOUFFEMONT	2.307852	49.043675	5910.4500514214
11	95	BOUQUEVAL	2.424622	49.024491	328.4663424749
21	10	ARREMBECOURT	4.59846	48.54253	48.3137615917
21	10	CLEREY	4.191379	48.208644	1169.2067069175
21	10	COCLOIS	4.337872	48.472781	201.9216071697
21	10	COLOMBE-LA-FOSSE	4.789752	48.263999	208.4442429838
21	10	COLOMBE-LE-SEC	4.7968909	48.25562	135.0212254007
21	10	CORMOST	4.135991	48.1680149	305.7783448152
21	10	COURCELLES-SUR-VOIRE	4.540002	48.470857	40.8956481075
21	10	COURCEROY	3.412611	48.4657849	113.5733896014
21	10	COURSAN-EN-OTHE	3.83945	48.0709019	97.9179562695
21	10	COURTAOULT	3.863056	48.023243	77.465101026
21	10	COURTENOT	4.304922	48.148324	196.2115789714
21	10	ARRENTIERES	4.740644	48.262818	200.0620774032
21	10	COURTERANGES	4.238705	48.26705	633.7609944096
21	10	COURTERON	4.444191	48.020304	118.4518697476
21	10	COUSSEGREY	4.0175	47.9526449	149.1350373759
21	10	COUVIGNON	4.650342	48.207229	246.4106368296
21	10	CRANCEY	3.638379	48.519036	830.7399377229
21	10	CRENEY-PRES-TROYES	4.12599	48.332463	1674.2149585571
21	10	CRESANTIGNES	4.020401	48.141936	279.3679021893
21	10	CRESPY-LE-NEUF	4.594686	48.397955	147.6428828044
21	10	LES CROUTES	3.864548	47.996979	96.9238080186
21	10	CUNFIN	4.667782	48.040692	215.5413923937
21	10	ARSONVAL	4.649023	48.268341	355.148815398
21	10	CUSSANGY	4.096183	48.0210549	206.8509859033
21	10	DAMPIERRE	4.368317	48.5511	302.4450351434
21	10	DAVREY	3.947506	48.051687	267.856338929
21	10	DIENVILLE	4.532268	48.348882	837.5351178011
21	10	DIERREY-SAINT-JULIEN	3.829932	48.310884	269.1515166669
21	10	DIERREY-SAINT-PIERRE	3.826954	48.3260829	203.3334831982
21	10	DOLANCOURT	4.61685	48.26591	150.3130669598
21	10	DOMMARTIN-LE-COQ	4.358838	48.501542	65.7045420138
21	10	DONNEMENT	4.434294	48.510652	76.7625142429
21	10	DOSCHES	4.248786	48.320436	304.3826607336
21	10	ASSENAY	4.064583	48.179889	162.7661735931
21	10	DOSNON	4.229983	48.61221	114.2819282941
21	10	DROUPT-SAINT-BASLE	3.936135	48.477513	314.5817154862
21	10	DROUPT-SAINTE-MARIE	3.926563	48.4984759	238.8393753717
21	10	EAUX-PUISEAUX	3.8895562	48.1229802	246.5741793571
21	10	ECHEMINES	3.833597	48.386364	79.1508070709
21	10	ECLANCE	4.635389	48.306837	121.7772036852
21	10	EGUILLY-SOUS-BOIS	4.53556	48.138602	126.9880370115
21	10	ENGENTE	4.755266	48.269345	44.8360532929
21	10	EPAGNE	4.46432	48.391833	110.2717828588
21	10	EPOTHEMONT	4.657858	48.418407	161.2310563995
21	10	ASSENCIERES	4.198087	48.358111	190.414189866
21	10	ERVY-LE-CHATEL	3.909751	48.041155	1223.3686395234
21	10	ESSOYES	4.536486	48.057597	703.3198938874
21	10	ESTISSAC	3.809154	48.26603	1834.844080104
21	10	ETOURVY	4.131	47.956752	228.3318506914
21	10	ETRELLES-SUR-AUBE	3.872947	48.560294	141.6804953301
21	10	FAUX-VILLECERF	3.740313	48.332038	220.6026143069
21	10	FAY-LES-MARCILLY	3.600229	48.404964	107.9275045613
21	10	FAYS-LA-CHAPELLE	4.022898	48.131359	154.6699734021
21	10	FERREUX-QUINCEY	3.611037	48.450119	339.1516282779
21	10	FEUGES	4.1099	48.397443	259.7462766885
21	10	AUBETERRE	4.120541	48.429958	237.3444751161
21	10	FONTAINE	4.716748	48.213864	316.337423305
21	10	FONTAINE-LES-GRES	3.913717	48.425706	849.7148505803
21	10	FONTAINE-MACON	3.508743	48.464917	573.1442444474
21	10	FONTENAY-DE-BOSSERY	3.456056	48.45409	80.4085941113
21	10	FONTETTE	4.609418	48.083103	185.7600503663
21	10	FONTVANNES	3.873735	48.278801	571.7595145261
21	10	LA FOSSE-CORDUAN	3.651929	48.442273	229.6773199372
21	10	FOUCHERES	4.266663	48.153636	512.1538840657
21	10	FRALIGNES	4.373228	48.164259	80.1680541723
21	10	FRAVAUX	4.636126	48.238478	43.9215491072
21	10	FRESNAY	4.749351	48.314183	46.6105839985
21	10	FRESNOY-LE-CHATEAU	4.222815	48.209106	246.0080867278
21	10	FULIGNY	4.706741	48.33185	51.6605199403
21	10	GELANNES	3.673661	48.483569	730.530350804
21	10	GERAUDOT	4.322921	48.308534	290.2606642279
21	10	LES GRANDES-CHAPELLES	4.0170389	48.464126	378.7499661729
21	10	GRANDVILLE	4.231326	48.59585	89.8393371596
21	10	LES GRANGES	4.053052	48.058158	83.3863714812
21	10	GUMERY	3.428011	48.445739	226.8142926536
21	10	AULNAY	4.406875	48.472114	112.6002937461
21	10	GYE-SUR-SEINE	4.427941	48.028773	528.4364404379
21	10	HAMPIGNY	4.590739	48.455305	270.1620807196
21	10	HERBISSE	4.112842	48.623499	188.8898464241
21	10	ISLE-AUMONT	4.124674	48.212473	478.6123870606
21	10	ISLE-AUBIGNY	4.261334	48.525552	151.8993813555
21	10	JASSEINES	4.384	48.501344	158.8178442211
21	10	JAUCOURT	4.646658	48.259312	187.8712936922
21	10	JAVERNANT	4.002114	48.160679	177.1607458562
21	10	JESSAINS	4.577917	48.296872	283.8721215313
21	10	JEUGNY	4.037327	48.13045	471.8784661977
21	10	AUXON	3.918793	48.103362	990.822048148
21	10	JONCREUIL	4.6136609	48.522119	88.7024579789
21	10	JULLY-SUR-SARCE	4.305881	48.108587	297.4419283896
21	10	JUVANCOURT	4.799235	48.114646	162.1268120464
21	10	JUVANZE	4.560838	48.316569	26.0005955985
21	10	JUZANVIGNY	4.588287	48.414051	122.2797063059
21	10	LAGESSE	4.135101	48.020932	196.1052501356
21	10	LAINES-AUX-BOIS	3.995141	48.231523	520.3776024025
21	10	LANDREVILLE	4.471774	48.073293	515.9679419902
21	10	LANTAGES	4.211307	48.072844	242.2394683134
21	10	LASSICOURT	4.489383	48.442716	67.3676304013
21	10	VAL-D'AUZON	4.366531	48.406112	409.3307768003
21	10	LAUBRESSEL	4.221755	48.300339	475.4956899999
21	10	LAVAU	4.0867889	48.324635	933.2443183611
21	10	LENTILLES	4.611752	48.483583	98.5799257009
21	10	LESMONT	4.413868	48.426889	371.645763464
21	10	LEVIGNY	4.706606	48.301108	107.0063699241
21	10	LHUITRE	4.24779	48.570866	281.6323910428
21	10	LIGNIERES	3.965342	47.951187	223.2754729759
21	10	LIGNOL-LE-CHATEAU	4.808544	48.22388	216.3492132149
21	10	LIREY	4.045669	48.156123	88.0170680273
21	10	LOCHES-SUR-OURCE	4.50354	48.0640209	354.9515470717
21	10	AILLEVILLE	4.681763	48.252977	288.2497785036
21	10	AVANT-LES-MARCILLY	3.569116	48.423941	494.9534491818
21	10	LA LOGE-AUX-CHEVRES	4.412521	48.271354	79.5818090237
21	10	LA LOGE-POMBLIN	4.037597	48.056557	76.0563529168
21	10	LES LOGES-MARGUERON	4.108599	48.086484	256.818250544
21	10	LONGCHAMP-SUR-AUJON	4.833037	48.150629	415.4751000252
21	10	LONGEVILLE-SUR-MOGNE	4.062627	48.147349	109.8138702824
21	10	LONGPRE-LE-SEC	4.525092	48.186796	85.3050360032
21	10	LONGSOLS	4.287807	48.430819	125.598935001
21	10	LONGUEVILLE-SUR-AUBE	3.913465	48.554929	127.8186184272
21	10	LA LOUPTIERE-THENARD	3.433419	48.387219	271.1428185055
21	10	LUSIGNY-SUR-BARSE	4.266364	48.254648	1751.8375287352
21	10	AVANT-LES-RAMERUPT	4.286568	48.45049	140.406114435
21	10	LUYERES	4.192311	48.378662	452.6307212751
21	10	MACEY	3.914934	48.292627	902.5727384951
21	10	MACHY	4.048514	48.138212	103.5728489311
21	10	MAGNANT	4.415215	48.1675899	164.1419798833
21	10	MAGNICOURT	4.379767	48.45227	68.9499513771
21	10	MAGNY-FOUCHARD	4.5351169	48.243153	273.9778298793
21	10	MAILLY-LE-CAMP	4.195654	48.671701	1802.7438220556
21	10	MAISON-DES-CHAMPS	4.566701	48.243566	41.2158300769
21	10	MAISONS-LES-CHAOURCE	4.163795	48.009371	175.3970852305
21	10	MAISONS-LES-SOULAINES	4.787636	48.289645	84.1145860303
21	10	AVIREY-LINGEY	4.2987399	48.026527	232.0083489102
21	10	MAIZIERES-LA-GRANDE-PAROISSE	3.791103	48.50413	1386.8450780397
21	10	MAIZIERES-LES-BRIENNE	4.586307	48.43714	177.5800748863
21	10	MARAYE-EN-OTHE	3.853266	48.163468	514.5220489198
21	10	MARCILLY-LE-HAYER	3.632991	48.347169	654.9282900091
21	10	MARIGNY-LE-CHATEL	3.736339	48.402907	1614.3280381432
21	10	MARNAY-SUR-SEINE	3.557646	48.513072	244.585883564
21	10	MAROLLES-LES-BAILLY	4.346843	48.184493	108.8365759598
21	10	MAROLLES-SOUS-LIGNIERES	3.919158	47.949267	319.8568585902
21	10	MATHAUX	4.477246	48.372451	243.2730220958
21	10	MAUPAS	4.075018	48.1355549	100.1339466637
21	10	AVON-LA-PEZE	3.653798	48.389272	193.1512696684
21	10	MERGEY	4.006912	48.384956	671.3128360548
21	10	LE MERIOT	3.43948	48.505125	574.2565233525
21	10	MERREY-SUR-ARCE	4.388027	48.0962699	331.8507244029
21	10	MERY-SUR-SEINE	3.888808	48.508707	1403.7118778948
21	10	MESGRIGNY	3.883291	48.486443	263.019995959
21	10	MESNIL-LA-COMTESSE	4.195636	48.497422	32.0973116815
21	10	MESNIL-LETTRE	4.268975	48.455086	60.9946935377
21	10	MESNIL-SAINT-LOUP	3.76547	48.3015479	554.5322240255
21	10	MESNIL-SAINT-PERE	4.333515	48.2489769	426.1296842384
21	10	MESNIL-SELLIERES	4.221447	48.339034	599.8510727656
21	10	AVREUIL	3.999131	48.0458939	168.6973540746
21	10	MESSON	3.907077	48.264297	475.7011326977
21	10	METZ-ROBERT	4.10752	48.076777	57.5202838675
21	10	MEURVILLE	4.62385	48.202709	179.2607050122
21	10	MOLINS-SUR-AUBE	4.380219	48.4354889	119.9271201089
21	10	MONTAULIN	4.193293	48.25139	774.4886925558
21	10	MONTCEAUX-LES-VAUDES	4.158718	48.161171	274.8807135935
21	10	MONTFEY	3.875303	48.0671279	131.7461556177
21	10	MONTGUEUX	3.956832	48.305313	418.9375179531
21	10	MONTIERAMEY	4.305513	48.230164	466.194629665
21	10	BAGNEUX-LA-FOSSE	4.296621	47.992975	172.0416598672
21	10	MONTIER-EN-L'ISLE	4.661894	48.260217	182.9331281838
21	10	MONTIGNY-LES-MONTS	3.946325	48.103474	285.2502233961
21	10	MONTMARTIN-LE-HAUT	4.549729	48.208661	60.7014107902
21	10	MONTMORENCY-BEAUFORT	4.563281	48.486493	123.0697675618
21	10	MONTPOTHIER	3.519476	48.57242	346.1860690204
21	10	MONTREUIL-SUR-BARSE	4.29491	48.225251	294.4033174706
21	10	MONTSUZAIN	4.132864	48.4445089	350.644598466
21	10	MOREMBERT	4.329514	48.502562	51.0903949354
21	10	MORVILLIERS	4.619256	48.380988	295.1230337831
21	10	LA MOTTE-TILLY	3.440185	48.473812	374.7292654763
21	10	BAILLY-LE-FRANC	4.654262	48.522986	28.7779758298
21	10	MOUSSEY	4.094696	48.214562	583.1813670151
21	10	MUSSY-SUR-SEINE	4.498015	47.97939	1177.4438600907
21	10	NEUVILLE-SUR-SEINE	4.411713	48.040656	383.7739213443
21	10	NEUVILLE-SUR-VANNE	3.777497	48.256061	466.0314307473
21	10	NOE-LES-MALLETS	4.569774	48.101154	109.8832771526
21	10	LES NOES-PRES-TROYES	4.040382	48.303264	3382.7259470526
21	10	NOGENT-EN-OTHE	3.805376	48.145478	35.4435857612
21	10	NOGENT-SUR-AUBE	4.308135	48.493307	356.874279582
21	10	NOGENT-SUR-SEINE	3.498165	48.492624	6016.8407511287
21	10	NOZAY	4.097303	48.5096	144.8627976172
21	10	BALIGNICOURT	4.457881	48.514853	76.8140959665
21	10	ONJON	4.282733	48.39611	243.6443906884
21	10	ORIGNY-LE-SEC	3.773847	48.46468	652.7465992868
21	10	ORMES	4.116215	48.552235	202.5195891534
21	10	ORTILLON	4.251779	48.513423	35.7325765496
21	10	ORVILLIERS-SAINT-JULIEN	3.827195	48.443177	323.7155466508
21	10	OSSEY-LES-TROIS-MAISONS	3.728568	48.432673	575.5452172684
21	10	PAISY-COSDON	3.7141	48.233088	333.2884940366
21	10	PALIS	3.70814	48.288167	618.9953286459
21	10	PARGUES	4.197752	48.033338	117.1292110943
21	10	PARS-LES-CHAVANGES	4.499161	48.507919	71.0278433223
21	10	BALNOT-LA-GRANGE	4.1980259	47.986028	150.4633473612
21	10	PARS-LES-ROMILLY	3.732098	48.485474	800.7249552057
21	10	LE PAVILLON-SAINTE-JULIE	3.899298	48.369911	347.9347217734
21	10	PAYNS	3.976519	48.383144	1240.8302350179
21	10	PEL-ET-DER	4.416946	48.401302	147.1662087991
21	10	PERIGNY-LA-ROSE	3.624962	48.547342	104.388711269
21	10	PERTHES-LES-BRIENNE	4.538969	48.430964	86.7122535029
21	10	PETIT-MESNIL	4.596788	48.345613	246.1835988106
21	10	PINEY	4.333162	48.363978	1271.1856173563
21	10	PLAINES-SAINT-LANGE	4.476059	47.993072	311.7701047951
21	10	PLANCY-L'ABBAYE	3.96757	48.570848	979.166348332
21	10	BALNOT-SUR-LAIGNES	4.366729	48.03073	147.8693133187
21	10	PLANTY	3.651098	48.272009	198.3865637396
21	10	PLESSIS-BARBUISE	3.583974	48.576344	160.1272751178
21	10	POIVRES	4.258868	48.685044	172.9925956224
21	10	POLIGNY	4.342924	48.174864	77.3450204279
21	10	POLISOT	4.375447	48.072687	344.1270728927
21	10	POLISY	4.380585	48.060904	166.3333635209
21	10	PONT-SAINTE-MARIE	4.0986459	48.319107	4950.8322879872
21	10	PONT-SUR-SEINE	3.596331	48.518529	1027.6379224428
21	10	POUAN-LES-VALLEES	4.064609	48.541553	511.5797607026
21	10	AIX-EN-OTHE	3.730914	48.222513	2519.1756583129
21	10	BARBEREY-SAINT-SULPICE	4.032719	48.336422	1333.0115961615
21	10	POUGY	4.356344	48.446818	285.5466641558
21	10	POUY-SUR-VANNES	3.588839	48.307047	149.069644856
21	10	PRASLIN	4.19881	48.046616	68.4188613454
21	10	PRECY-NOTRE-DAME	4.438368	48.41078	81.0941682783
21	10	PRECY-SAINT-MARTIN	4.4497	48.415723	200.7791099411
21	10	PREMIERFAIT	4.026577	48.501919	114.5728303918
21	10	PROVERVILLE	4.694594	48.231581	260.5892583913
21	10	PRUGNY	3.941342	48.245758	451.3654314428
21	10	PRUNAY-BELLEVILLE	3.7711	48.3686	212.255395138
21	10	PRUSY	4.0443239	47.971829	104.8980858575
21	10	BARBUISE	3.576829	48.557863	427.3143591658
21	10	PUITS-ET-NUISEMENT	4.500254	48.212433	208.2305264386
21	10	RACINES	3.842583	48.049979	191.416777534
21	10	RADONVILLIERS	4.506752	48.359626	377.093870833
21	10	RAMERUPT	4.291815	48.519629	398.9968919199
21	10	RANCES	4.546146	48.4661649	41.4947006277
21	10	RHEGES	3.996887	48.547351	367.9369364887
21	10	LES RICEYS	4.36949	47.993819	1357.8948650079
21	10	RIGNY-LA-NONNEUSE	3.661585	48.409965	136.574226926
21	10	RIGNY-LE-FERRON	3.631146	48.208545	387.8062340945
21	10	BAROVILLE	4.722212	48.192523	361.283140674
21	10	RILLY-SAINTE-SYRE	3.958552	48.444207	262.1751706862
21	10	LA RIVIERE-DE-CORPS	4.028463	48.287724	2814.8250479531
21	10	ROMILLY-SUR-SEINE	3.726275	48.517732	13585.5967333237
21	10	RONCENAY	4.045998	48.195998	132.2033157697
21	10	ROSIERES-PRES-TROYES	4.062959	48.262698	3216.6631264463
21	10	ROSNAY-L'HOPITAL	4.503742	48.459783	224.5553405736
21	10	LA ROTHIERE	4.558781	48.345661	98.9433078211
21	10	ROUILLY-SACEY	4.262805	48.345596	362.6016829815
21	10	ROUILLY-SAINT-LOUP	4.149574	48.263242	558.5484797631
21	10	BAR-SUR-AUBE	4.707771	48.231209	5142.6913883349
21	10	ROUVRES-LES-VIGNES	4.8218249	48.240977	119.6328521622
21	10	RUMILLY-LES-VAUDES	4.217986	48.144901	463.631798835
21	10	RUVIGNY	4.180492	48.275307	445.6199162582
21	10	SAINT-ANDRE-LES-VERGERS	4.053341	48.279962	11196.5707846617
21	10	SAINT-AUBIN	3.558398	48.47577	572.1540031754
21	10	SAINT-BENOIST-SUR-VANNE	3.668239	48.234623	243.9603238373
21	10	SAINT-BENOIT-SUR-SEINE	4.030646	48.368243	394.7859870383
21	10	SAINT-CHRISTOPHE-DODINICOURT	4.470025	48.439055	36.1760239688
21	10	SAINT-ETIENNE-SOUS-BARBUISE	4.10909	48.501592	143.3743406661
21	10	SAINT-FLAVY	3.755955	48.403159	280.3899563287
21	10	BAR-SUR-SEINE	4.373386	48.114154	3344.4490123721
21	10	SAINT-GERMAIN	4.029914	48.256538	2241.2617707911
21	10	SAINT-HILAIRE-SOUS-ROMILLY	3.654284	48.51592	397.317977032
21	10	SAINT-JEAN-DE-BONNEVAL	4.052058	48.172283	405.0241984798
21	10	SAINT-JULIEN-LES-VILLAS	4.098905	48.273427	6806.3205772923
21	10	SAINT-LEGER-PRES-TROYES	4.078744	48.235885	741.5865179051
21	10	SAINT-LEGER-SOUS-BRIENNE	4.502602	48.403864	406.4082758421
21	10	SAINT-LEGER-SOUS-MARGERIE	4.487871	48.530814	46.6498109958
21	10	SAINT-LOUP-DE-BUFFIGNY	3.636451	48.4497349	188.1645133218
21	10	SAINT-LUPIEN	3.701125	48.36059	235.0294102218
21	10	SAINT-LYE	4.004128	48.361165	2938.6069172628
21	10	BAYEL	4.776979	48.198794	869.2041201716
21	10	SAINT-MARDS-EN-OTHE	3.799723	48.172719	682.7379964886
21	10	SAINT-MARTIN-DE-BOSSENAY	3.687923	48.446127	410.9689718518
21	10	SAINTE-MAURE	4.058645	48.347163	1516.0386573463
21	10	SAINT-MESMIN	3.926467	48.444221	917.70106995
21	10	SAINT-NABORD-SUR-AUBE	4.215321	48.526327	127.3530723326
21	10	SAINT-NICOLAS-LA-CHAPELLE	3.466776	48.530482	76.4238602227
21	10	SAINT-OULPH	3.875409	48.5260729	217.1916368579
21	10	SAINT-PARRES-AUX-TERTRES	4.117911	48.299884	2936.0793449769
21	10	SAINT-PARRES-LES-VAUDES	4.215137	48.173881	1022.9383704505
21	10	SAINT-PHAL	3.99737	48.121083	540.9394634922
21	10	SAINT-POUANGE	4.039121	48.221263	952.0957787669
21	10	SAINT-REMY-SOUS-BARBUISE	4.115957	48.485104	191.439196768
21	10	SAINTE-SAVINE	4.056495	48.293191	10025.3492192507
21	10	SAINT-THIBAULT	4.138372	48.20614	489.610026877
21	10	SAINT-USAGE	4.609741	48.1005309	88.9663605939
21	10	SALON	4.003583	48.6399929	145.8890387042
21	10	SAULCY	4.8333009	48.277684	89.4178182719
21	10	LA SAULSOTTE	3.501058	48.5429249	658.9282290642
21	10	SAVIERES	3.950854	48.407184	886.5709901046
21	10	SEMOINE	4.0874879	48.679459	235.3530644322
21	10	BERCENAY-EN-OTHE	3.890927	48.208312	402.8653115203
21	10	SOLIGNY-LES-ETANGS	3.510279	48.406782	224.4966416459
21	10	SOMMEVAL	3.969799	48.158525	343.2219237726
21	10	SOULAINES-DHUYS	4.733347	48.375289	314.6451656154
21	10	SOULIGNY	3.9972	48.202148	432.7042919322
21	10	SPOY	4.620133	48.228337	143.3188075427
21	10	THENNELIERES	4.175322	48.290406	354.7807242832
21	10	THIEFFRAIN	4.43984	48.195917	159.346692396
21	10	THIL	4.784199	48.347988	168.375763854
21	10	THORS	4.811532	48.3058679	63.8930111062
21	10	TORCY-LE-GRAND	4.170008	48.53326	427.427988268
21	10	TORCY-LE-PETIT	4.194261	48.53139	75.8555061248
21	10	TORVILLIERS	3.976156	48.2745419	863.8197637282
21	10	TRAINEL	3.439014	48.415777	1055.6596450191
21	10	TRANNES	4.586608	48.301158	279.6642207187
21	10	TROUANS	4.236373	48.629426	233.7948960028
21	10	TROYES	4.074735	48.2965919	61148.4622774985
21	10	TURGY	4.04781	48.0235879	41.5532179973
21	10	UNIENVILLE	4.545953	48.3278419	111.3801330194
21	10	BERGERES	4.66712	48.186198	130.3113271728
21	10	URVILLE	4.650825	48.169915	159.6892865294
21	10	VAILLY	4.129344	48.369438	312.3955027584
21	10	VALLANT-SAINT-GEORGES	3.903343	48.469068	401.4914680705
21	10	VALLENTIGNY	4.579251	48.448166	204.8453947062
21	10	VALLIERES	4.0569309	47.995724	139.0877968602
21	10	VANLAY	4.015215	48.026119	303.5542781426
21	10	VAUCHASSIS	3.923985	48.221676	516.6906783842
21	10	VAUCHONVILLIERS	4.525779	48.265607	140.4885993423
21	10	VAUCOGNE	4.3440899	48.527603	83.1056297948
21	10	VAUDES	4.184667	48.174292	676.2013444785
21	10	ALLIBAUDIERES	4.107207	48.586179	251.8053751063
21	10	BERNON	3.995096	47.988835	202.157269684
21	10	VAUPOISSON	4.23525	48.51743	145.5427856916
21	10	VENDEUVRE-SUR-BARSE	4.464523	48.236678	2391.9321284063
21	10	LA VENDUE-MIGNOT	4.110756	48.160898	229.6792690635
21	10	VERNONVILLIERS	4.681015	48.314959	79.8803120332
21	10	VERPILLIERES-SUR-OURCE	4.567712	48.040786	113.0281874642
21	10	VERRICOURT	4.349117	48.451869	38.5238396679
21	10	VERRIERES	4.14908	48.23105	1756.5480791109
21	10	VIAPRES-LE-PETIT	4.041469	48.563118	128.3863161725
21	10	VILLACERF	3.990722	48.397692	522.2512832411
21	10	BERTIGNOLLES	4.519035	48.129366	72.1238539237
21	10	VILLADIN	3.681245	48.317808	130.5642101333
21	10	LA VILLE-AUX-BOIS	4.6907	48.403581	21.7420239112
21	10	VILLECHETIF	4.1473509	48.31559	937.5169775958
21	10	VILLELOUP	3.874249	48.360205	136.5329320557
21	10	VILLEMAUR-SUR-VANNE	3.727714	48.257182	502.1284259229
21	10	VILLEMEREUIL	4.087709	48.199503	231.6004552679
21	10	VILLEMOIRON-EN-OTHE	3.779716	48.200142	217.5999699359
21	10	VILLEMORIEN	4.29692	48.085062	208.8952402637
21	10	VILLEMOYENNE	4.226943	48.178	755.072576118
21	10	BERULLE	3.664731	48.177342	261.5452238572
21	10	VILLENAUXE-LA-GRANDE	3.553163	48.589602	2693.9617924008
21	10	LA VILLENEUVE-AU-CHATELOT	3.612231	48.55007	131.3061518301
21	10	VILLENEUVE-AU-CHEMIN	3.851007	48.090153	187.6138047654
21	10	LA VILLENEUVE-AU-CHENE	4.387722	48.238708	437.1776523969
21	10	VILLERET	4.590236	48.477188	72.5600878318
21	10	VILLERY	4.01863	48.17228	282.1240199027
21	10	VILLE-SOUS-LA-FERTE	4.789707	48.119775	1261.6581309034
21	10	VILLE-SUR-ARCE	4.447847	48.106938	239.07718424
21	10	VILLE-SUR-TERRE	4.746141	48.332049	125.5064172142
21	10	VILLETTE-SUR-AUBE	4.101088	48.535072	237.8996202352
21	10	VILLIERS-HERBISSE	4.112021	48.63601	91.3676111582
21	10	VILLIERS-LE-BOIS	4.18743	47.958599	97.2566268984
21	10	VILLIERS-SOUS-PRASLIN	4.2487259	48.062516	80.8106070418
21	10	VILLY-EN-TRODES	4.381406	48.198208	276.7074339899
21	10	VILLY-LE-BOIS	4.092987	48.160607	63.8948851365
21	10	VILLY-LE-MARECHAL	4.073572	48.188192	161.4749470564
21	10	VINETS	4.239384	48.533964	175.2770375882
21	10	VIREY-SOUS-BAR	4.302803	48.142315	621.987694653
21	10	VITRY-LE-CROISE	4.565565	48.1457989	248.9783153968
21	10	VIVIERS-SUR-ARTAUT	4.496847	48.096511	106.0754424622
21	10	BETIGNICOURT	4.455066	48.446169	29.3335475393
21	10	VOIGNY	4.768496	48.2408	185.4558453028
21	10	VOSNON	3.839858	48.1115939	197.949041714
21	10	VOUE	4.12315	48.457704	607.5541917925
21	10	VOUGREY	4.227293	48.087869	51.8484655339
21	10	VULAINES	3.618472	48.233386	217.7896993125
21	10	YEVRES-LE-PETIT	4.490635	48.479007	76.1012796339
21	10	BEUREY	4.46559	48.184309	189.4712712598
21	10	BLAINCOURT-SUR-AUBE	4.457066	48.388447	101.8159131659
21	10	BLIGNICOURT	4.531019	48.46241	42.920740286
21	10	BLIGNY	4.617051	48.171304	199.507514286
21	10	LES BORDES-AUMONT	4.1227919	48.18401	485.4058716523
21	10	AMANCE	4.515913	48.295328	267.5736501864
21	10	BOSSANCOURT	4.601241	48.281953	179.7708086398
21	10	BOUILLY	3.998064	48.193294	995.5454046738
21	10	BOULAGES	3.91494	48.579078	238.4635046876
21	10	BOURANTON	4.179804	48.3121269	545.6823833005
21	10	BOURDENAY	3.588234	48.359639	453.8156890592
21	10	BOURGUIGNONS	4.357471	48.130666	270.0729954389
21	10	BOUY-LUXEMBOURG	4.257381	48.378322	201.2552415259
21	10	BOUY-SUR-ORVIN	3.496775	48.412311	63.7064377364
21	10	BRAGELOGNE-BEAUVOIR	4.2661	47.9692	273.0349273331
21	10	BRAUX	4.471357	48.48362	103.4931396292
21	10	ARCIS-SUR-AUBE	4.143492	48.537751	3111.0931081834
21	10	BREVIANDES	4.09535	48.256985	2318.7840547521
21	10	BREVONNES	4.400593	48.35994	746.3213496906
21	10	BRIEL-SUR-BARSE	4.354227	48.20938	201.5073068055
21	10	BRIENNE-LA-VIEILLE	4.5298619	48.376216	476.5484351518
21	10	BRIENNE-LE-CHATEAU	4.526154	48.393104	3182.7907156531
21	10	BRILLECOURT	4.362882	48.471491	87.5149596766
21	10	BUCEY-EN-OTHE	3.860614	48.260285	460.2815790938
21	10	BUCHERES	4.112636	48.23569	1449.3281747669
21	10	BUXEUIL	4.395893	48.05326	138.3567159261
21	10	BUXIERES-SUR-ARCE	4.459191	48.124436	156.4276617967
21	10	ARCONVILLE	4.722935	48.1625159	102.5587970745
21	10	CELLES-SUR-OURCE	4.400432	48.076649	467.4854233023
21	10	CHACENAY	4.527853	48.114916	65.2972408111
21	10	LA CHAISE	4.65965	48.3617149	37.1746266563
21	10	CHALETTE-SUR-VOIRE	4.423967	48.445283	142.1718634576
21	10	CHAMOY	3.96956	48.118775	493.5727554643
21	10	CHAMPFLEURY	4.004954	48.617568	167.2582644151
21	10	CHAMPIGNOL-LEZ-MONDEVILLE	4.674746	48.140213	358.8037762535
21	10	CHAMPIGNY-SUR-AUBE	4.0742459	48.560906	93.1884440179
21	10	CHAMP-SUR-BARSE	4.408167	48.237523	33.9582074736
21	10	CHANNES	4.2543689	47.939566	123.4197967946
21	10	ARGANCON	4.604075	48.254904	98.1677509278
21	10	CHAOURCE	4.137442	48.056498	1129.2250309682
21	10	LA CHAPELLE-SAINT-LUC	4.047818	48.312011	13333.9539649146
21	10	CHAPELLE-VALLON	4.038659	48.435868	202.612934626
21	10	CHAPPES	4.247447	48.166759	320.2277078669
21	10	CHARMONT-SOUS-BARBUISE	4.172245	48.409291	1080.1136897947
21	10	CHARMOY	3.590168	48.400998	56.3403678498
21	10	CHARNY-LE-BACHOT	3.94344	48.552324	195.2366260101
21	10	CHASEREY	4.067128	47.957713	50.4490270459
21	10	CHATRES	3.851692	48.500825	630.5651981325
21	10	ARRELLES	4.276067	48.048844	86.9487643025
21	10	CHAUCHIGNY	3.969223	48.4223349	248.4744042136
21	10	CHAUDREY	4.274138	48.503958	153.6892145775
21	10	CHAUFFOUR-LES-BAILLY	4.328343	48.196069	119.2144441421
21	10	CHAUMESNIL	4.596036	48.359775	81.0376418079
21	10	CHAVANGES	4.573659	48.507684	650.7861957139
21	10	LE CHENE	4.175315	48.548203	275.6762217387
21	10	CHENNEGY	3.853322	48.225575	484.9701479793
21	10	CHERVEY	4.491907	48.1254149	186.0397150383
21	10	CHESLEY	4.107552	47.977528	349.8860601087
21	10	CHESSY-LES-PRES	3.912707	48.025618	527.0253622378
21	51	ABLANCOURT	4.521302	48.813258	142.7393871753
21	51	ANGLUZELLES-ET-COURCELLES	3.878996	48.658077	133.3478879446
21	51	LA CAURE	3.789519	48.912304	93.6226772585
21	51	CAUREL	4.152483	49.303616	662.8018229048
21	51	CAUROY-LES-HERMONVILLE	3.923393	49.348973	501.84362548
21	51	LA CELLE-SOUS-CHANTEMERLE	3.678988	48.612518	175.0669972447
21	51	CERNAY-EN-DORMOIS	4.763808	49.2258349	157.5104557548
21	51	CERNAY-LES-REIMS	4.104794	49.263944	1380.8480165529
21	51	CERNON	4.344035	48.84025	134.3416253819
21	51	CHAINTRIX-BIERGES	4.1075	48.9025	278.3231353323
21	51	CHALONS-EN-CHAMPAGNE	4.363073	48.956682	46121.8252004993
21	51	CHALONS-SUR-VESLE	3.918171	49.289288	164.0473807102
21	51	CHALTRAIT	3.896263	48.930149	74.6960010656
21	51	CHAMBRECY	3.822503	49.183171	165.7947877851
21	51	CHAMERY	3.955619	49.171868	391.1080125495
21	51	CHAMPAUBERT	3.776432	48.878621	133.7267464694
21	51	CHAMPFLEURY	4.019842	49.198186	569.8848263641
21	51	CHAMPGUYON	3.551761	48.770283	261.2893055328
21	51	CHAMPIGNEUL-CHAMPAGNE	4.167712	48.971066	290.0879885341
21	51	CHAMPIGNY	3.972869	49.268383	1387.6425656009
21	51	CHAMPILLON	3.976289	49.083969	526.4059369045
21	51	ANTHENAY	3.734878	49.142294	66.7241049948
21	51	CHAMPLAT-ET-BOUJACOURT	3.833441	49.154394	148.7250081159
21	51	CHAMPVOISY	3.628035	49.126921	241.4136152091
21	51	CHANGY	4.677796	48.773065	104.4099274102
21	51	CHANTEMERLE	3.659134	48.612894	63.2704806331
21	51	CHAPELAINE	4.498312	48.578295	61.5755301753
21	51	LA CHAPELLE-FELCOURT	4.75483	49.044922	64.9829779691
21	51	LA CHAPELLE-LASSON	3.832186	48.628594	85.6673715692
21	51	LA CHAPELLE-SOUS-ORBAIS	3.731357	48.910248	49.5958434023
21	51	CHARLEVILLE	3.667405	48.813677	267.7509442905
21	51	AOUGNY	3.724926	49.181725	107.3779914769
21	51	CHARMONT	4.8660759	48.870093	227.1595028932
21	51	LES CHARMONTOIS	4.995455	48.966432	136.3486098902
21	51	LE CHATELIER	4.901981	48.93707	49.2582978104
21	51	CHATELRAOULD-SAINT-LOUVENT	4.546299	48.6792779	233.4923535838
21	51	CHATILLON-SUR-BROUE	4.703411	48.545757	68.4858118619
21	51	CHATILLON-SUR-MARNE	3.757199	49.099271	839.911318536
21	51	CHATILLON-SUR-MORIN	3.581224	48.713803	196.2654972611
21	51	CHATRICES	4.937142	49.0387119	35.2416213535
21	51	CHAUDEFONTAINE	4.869354	49.100116	319.6142029867
21	51	ARCIS-LE-PONSART	3.694447	49.23457	266.6414647157
21	51	CHAUMUZY	3.864844	49.175161	335.889280043
21	51	LA CHAUSSEE-SUR-MARNE	4.521439	48.83434	674.6730061593
21	51	CHAVOT-COURCOURT	3.927812	49.004606	383.0590092907
21	51	LE CHEMIN	4.970405	49.005526	46.0219366521
21	51	CHEMINON	4.9028539	48.736028	650.0347750109
21	51	CHENAY	3.929584	49.298061	273.4953107213
21	51	CHENIERS	4.244326	48.884798	125.4452658397
21	51	LA CHEPPE	4.4988469	49.050714	344.8000281007
21	51	CHEPPES-LA-PRAIRIE	4.472994	48.8333299	188.3257405788
21	51	CHEPY	4.436824	48.899837	406.5161222807
21	51	ARGERS	4.855106	49.069337	119.9965141907
21	51	CHERVILLE	4.163928	49.018603	98.2286234311
21	51	CHICHEY	3.759601	48.688329	153.3818302417
21	51	CHIGNY-LES-ROSES	4.062434	49.156744	522.870801526
21	51	CHOUILLY	4.015299	49.025888	1065.656659253
21	51	CLAMANGES	4.0828049	48.826773	211.880345938
21	51	CLESLES	3.831816	48.533923	616.3334860837
21	51	CLOYES-SUR-MARNE	4.6412	48.661709	115.7272235004
21	51	COIZARD-JOCHES	3.864784	48.828629	80.4798395726
21	51	VAL-DES-MARAIS	3.965	48.8453	582.3522747601
21	51	ARRIGNY	4.706673	48.623538	270.0569989372
21	51	COMPERTRIX	4.343514	48.93666	1244.1929282674
21	51	CONDE-SUR-MARNE	4.179213	49.043302	741.8049006848
21	51	CONFLANS-SUR-SEINE	3.682828	48.551724	667.3702759508
21	51	CONGY	3.826299	48.858745	257.4744641873
21	51	CONNANTRAY-VAUREFROY	4.061879	48.747346	202.6371329381
21	51	CONNANTRE	3.921941	48.72475	1084.845045915
21	51	CONTAULT	4.792683	48.913998	69.9552911226
21	51	COOLE	4.395118	48.736754	135.7007416783
21	51	COOLUS	4.35613	48.925294	220.9069337997
21	51	CORBEIL	4.425281	48.578004	100.7931790044
21	51	ARZILLIERES-NEUVILLE	4.588984	48.644897	341.7518068842
21	51	CORFELIX	3.697556	48.838226	115.5723034969
21	51	CORMICY	3.895249	49.370142	1489.2236502242
21	51	CORMONTREUIL	4.055568	49.2232569	6420.0869257704
21	51	CORMOYEUX	3.913674	49.109059	125.1968805149
21	51	CORRIBERT	3.764995	48.942326	57.6855814066
21	51	CORROBERT	3.60472	48.915347	182.547069147
21	51	CORROY	3.938968	48.70228	140.5070930497
21	51	COULOMMES-LA-MONTAGNE	3.910574	49.225551	215.2039932975
21	51	COUPETZ	4.356744	48.8193119	88.3129842863
21	51	COUPEVILLE	4.627346	48.9105009	175.1644974431
21	51	ATHIS	4.12871	49.017409	827.4090859702
21	51	COURCELLES-SAPICOURT	3.845222	49.262909	326.0700489716
21	51	COURCEMAIN	3.920206	48.618182	137.9330557169
21	51	COURCY	4.002156	49.32258	1350.6678280756
21	51	COURDEMANGES	4.5427229	48.694891	413.2269961199
21	51	COURGIVAUX	3.488879	48.711373	264.8367360298
21	51	COURJEONNET	3.834231	48.830016	46.1453463165
21	51	COURLANDON	3.736381	49.312757	298.8041027372
21	51	COURMAS	3.908893	49.189394	160.1693522188
21	51	AUBERIVE	4.4171699	49.203817	201.9661149154
21	51	COURTAGNON	3.947737	49.14247	69.1687415582
21	51	COURTEMONT	4.783299	49.132076	70.3243690381
21	51	COURTHIEZY	3.594903	49.053572	339.347692219
21	51	COURTISOLS	4.5155139	48.987385	2580.7980396524
21	51	COURVILLE	3.697597	49.268581	485.0177983433
21	51	COUVROT	4.571769	48.758552	834.3208001665
21	51	CRAMANT	3.998404	48.985856	883.4128032824
21	51	LA CROIX-EN-CHAMPAGNE	4.648328	49.064037	58.2398040969
21	51	CRUGNY	3.737079	49.256671	596.401571927
21	51	CUCHERY	3.824514	49.130816	415.3562534346
21	51	SAINT-MARTIN-D'ABLOIS	3.867231	49.012289	1491.5073734112
21	51	AUBILLY	3.858394	49.212978	51.5945127397
21	51	CUIS	3.975349	48.999612	385.0891188076
21	51	CUMIERES	3.926746	49.072064	834.1916815865
21	51	CUPERLY	4.430922	49.062271	231.2124367598
21	51	DAMERY	3.878107	49.072727	1543.7025868041
21	51	DAMPIERRE-AU-TEMPLE	4.392304	49.046121	263.5090158568
21	51	DAMPIERRE-LE-CHATEAU	4.7935679	49.009734	94.8933704189
21	51	DAMPIERRE-SUR-MOIVRE	4.558955	48.893634	130.8687092039
21	51	DIZY	3.96844	49.064663	1581.2639254743
21	51	DOMMARTIN-DAMPIERRE	4.826577	49.072739	73.4672135408
21	51	DOMMARTIN-LETTREE	4.2987149	48.766644	160.7077827455
21	51	DOMMARTIN-SOUS-HANS	4.784061	49.126181	53.1989531181
21	51	DOMMARTIN-VARIMONT	4.775409	48.967498	141.300088513
21	51	DOMPREMY	4.740675	48.728664	117.0164453277
21	51	DONTRIEN	4.41304	49.241224	215.0411214561
21	51	DORMANS	3.638479	49.07464	2855.5085353732
21	51	VAL-DE-VIERE	4.7342	48.8133	122.3203404236
21	51	DROSNAY	4.61883	48.5787229	165.6245802997
21	51	AULNAY-L'AITRE	4.565637	48.82327	143.0059910248
21	51	DROUILLY	4.525643	48.77309	129.5521475271
21	51	ECLAIRES	5.004937	49.001747	97.6860818365
21	51	ECOLLEMONT	4.7326879	48.6217029	57.6204873261
21	51	ECRIENNES	4.685702	48.6915369	151.6508405404
21	51	ECUEIL	3.953452	49.187094	290.5322057341
21	51	ECURY-LE-REPOS	4.032211	48.806827	57.817263644
21	51	ECURY-SUR-COOLE	4.334866	48.894634	493.7389254155
21	51	ELISE-DAUCOURT	4.8667049	49.046355	100.5371954022
21	51	EPENSE	4.833397	48.970724	109.3829521258
21	51	AULNAY-SUR-MARNE	4.204719	49.007509	226.3590092076
21	51	EPERNAY	3.956242	49.043411	24009.7268712152
21	51	L'	EPINE	4.468398	48.977007	664.0893005422
21	51	EPOYE	4.238175	49.290456	442.4608979379
21	51	ESCARDES	3.512316	48.697111	83.4355050005
21	51	ESCLAVOLLES-LUREY	3.651737	48.55451	499.3350372867
21	51	LES ESSARTS-LES-SEZANNE	3.650591	48.752152	267.1010331728
21	51	LES ESSARTS-LE-VICOMTE	3.556216	48.660512	138.4118412211
21	51	ESTERNAY	3.558579	48.732315	1825.7631287228
21	51	ETOGES	3.854818	48.879859	341.5460973516
21	51	ETRECHY	3.942403	48.884852	118.5802204256
21	51	ETREPY	4.806399	48.7632959	144.1958759139
21	51	EUVY	4.029675	48.719857	78.8575017962
21	51	FAGNIERES	4.318406	48.963374	4182.6117616577
21	51	FAUX-FRESNAY	3.942247	48.64475	350.3187902604
21	51	FAUX-VESIGNEUL	4.4008	48.7811	240.4911264385
21	51	FAVEROLLES-ET-COEMY	3.792313	49.234043	523.6045842477
21	51	FAVRESSE	4.733378	48.718075	182.8624288623
21	51	FEREBRIANGES	3.84297	48.872145	180.3214945073
21	51	FERE-CHAMPENOISE	3.991107	48.755058	2335.8991620058
