"commune","type","infraction","code_reg","code_dep","lat","lng","ville_ref"
"Abaucourt","P",28.94,41,"54",48.8928445916,6.26559712571,"Nancy"
"Abbecourt","P",33.080000000000005,22,"60",49.361199272,2.15509033815,"Méru"
"Abbéville-lès-Conflans","P",18.520000000000003,41,"54",49.2002692912,5.84406780319,"Briey"
"Abère","P",13.530000000000001,72,"64",43.3870958576,-0.174833109291,"Pau"
"Abergement-le-Grand","P",24.46,43,"39",46.9142864988,5.67853452364,"Dole"
"Abitain","P",18.33,72,"64",43.4173386214,-0.99809023231,"Orthez"
"Ablis","P",33.65,11,"78",48.5283257707,1.85096499421,"Rambouillet"
"Aboncourt","P",22.09,41,"57",49.2565158648,6.35416455836,"Thionville"
"Aboncourt-sur-Seille","P",15.78,41,"57",48.8186679657,6.35583662298,"Sarrebourg"
"Abrest","P",44.67,83,"03",46.0955766716,3.45052482175,"Vichy"
"Accons","P",22.980000000000004,82,"07",44.8885328213,4.39242968382,"Tournon-sur-Rhône"
"Achères","P",24.410000000000004,24,"18",47.2826534372,2.45877786434,"Bourges"
"Achey","P",20.28,43,"70",47.5770070289,5.60745476371,"Vesoul"
"Achy","P",29.380000000000003,22,"60",49.5562211633,1.97185766368,"Beauvais"
"Aclou","P",26.09,23,"27",49.1655546426,0.698293841066,"Bernay"
"Acquigny","P",23.19,23,"27",49.1648717394,1.1765581743,"Louviers"
"Adam-lès-Passavant","P",25.520000000000003,43,"25",47.3045713356,6.36894975342,"Besançon"
"Adelange","P",17.189999999999998,41,"57",49.0079073828,6.60632652354,"Boulay-Moselle"
"Adervielle-Pouchergues","P",20.43,73,"65",42.8017280148,0.389922766373,"Bagnères-de-Bigorre"
"Adriers","P",12.24,54,"86",46.2646103374,0.789659194144,"Montmorillon"
"Agassac","P",25.51,73,"31",43.3720949705,0.885301441873,"Saint-Gaudens"
"Agencourt","P",24.460000000000004,26,"21",47.1250474303,4.98564114053,"Beaune"
"Agmé","P",31.93,72,"47",44.4893814272,0.340441106525,"Marmande"
"Agnez-lès-Duisans","P",18.33,31,"62",50.3102322126,2.65021288373,"Arras"
"Agnières","P",16.729999999999997,31,"62",50.3535942668,2.60772514318,"Saint-Pol-sur-Ternoise"
"Agon-Coutainville","P",12.620000000000001,25,"50",49.0388327181,-1.58144574808,"Coutances"
"Aguessac","P",15.04,73,"12",44.1613901609,3.06898957805,"Millau"
"Ahetze","P",11.979999999999999,72,"64",43.4042762685,-1.57067985884,"Bayonne"
"Ahuillé","P",16.25,52,"53",48.0242749675,-0.872848003304,"Laval"
"Aïcirits-Camou-Suhast","P",7.590000000000001,72,"64",43.3536564293,-1.01649248098,"Mauléon-Licharre"
"Aiglun","P",25.52,93,"06",43.8524188,6.934942333,"Puget-Théniers"
"Aignerville","P",19.869999999999997,25,"14",49.3261867283,-0.918465184477,"Bayeux"
"Aigrefeuille","P",37.96,73,"31",43.5693635882,1.58421445375,"Toulouse Saint-Michel"
"Aigremont","P",48.4,11,"78",48.9008380509,2.0153630611,"Saint-Germain-en-Laye"
"Aiguebelette-le-Lac","P",34.489999999999995,82,"73",45.5476875903,5.81387589748,"Chambéry"
"Aigueperse","P",21.67,82,"69",46.2801268832,4.42330722719,"Villefranche-sur-Saône"
"Aiguèze","P",46.870000000000005,91,"30",44.3160186564,4.51739879151,"Bagnols-sur-Cèze"
"Aigurande","P",15.01,24,"36",46.455684191,1.83976972145,"Châtre (La)"
"Aillant-sur-Milleron","P",35.489999999999995,24,"45",47.7948800184,2.93667863104,"Montargis"
"Ailleville","P",36.410000000000004,21,"10",48.2549995704,4.69449329268,"Bar-sur-Aube"
"Ailly-le-Haut-Clocher","P",21.8,22,"80",50.0813661279,1.996040675,"Abbeville"
"Ainay-le-Château","P",11.770000000000001,83,"03",46.7155678491,2.72085613518,"Montluçon"
"Aincille","P",7.590000000000001,72,"64",43.1339521918,-1.19765745268,"Mauléon-Licharre"
"Aingoulaincourt","P",25.180000000000003,21,"52",48.4562339315,5.27698051622,"Saint-Dizier"
"Airan","P",16.68,25,"14",49.0953124219,-0.145440484479,"Falaise"
"Airion","P",32.43,22,"60",49.4222514079,2.41814312594,"Clermont"
"Aisey-sur-Seine","P",17.959999999999997,26,"21",47.7479865538,4.57814842131,"Montbard"
"Aiti","P",21.18,94,"2B",42.4043178377,9.22873647306,"Corte"
"Aix","P",13.33,74,"19",45.6131404682,2.39218552695,"Ussel"
"Aix-en-Othe","P",31.4,21,"10",48.1975745771,3.73632794113,"Rosières-près-Troyes"
"Aizanville","P",14.799999999999999,21,"52",48.1116130217,4.89456102722,"Chaumont"
"Aizenay","P",19.79,52,"85",46.7384516809,-1.62702889721,"Roche-sur-Yon (La)"
"Aizy-Jouy","P",24.39,22,"02",49.4384256824,3.51149185429,"Soissons"
"Ajoncourt","P",15.78,41,"57",48.8450639322,6.3036696933,"Sarrebourg"
"Alairac","P",24.24,91,"11",43.1820306523,2.2370439206,"Carcassonne"
"Alban","P",13.15,73,"81",43.8843961225,2.45700986389,"Albi"
"Albens","P",34.489999999999995,82,"73",45.789988746,5.93731067789,"Chambéry"
"Albestroff","P",15.78,41,"57",48.929810647,6.8693705224,"Sarrebourg"
"Albiac","P",39.699999999999996,73,"31",43.5558012046,1.78268278702,"Villefranche-de-Lauragais"
"Albiez-le-Jeune","P",28.859999999999996,82,"73",45.2391859578,6.35812756812,"Saint-Jean-de-Maurienne"
"Alboussière","P",22.980000000000004,82,"07",44.9397584607,4.73413213329,"Tournon-sur-Rhône"
"Alembon","P",16.82,31,"62",50.7805751248,1.87194877839,"Calais"
"Alénya","P",38.47,91,"66",42.6407019491,2.98145485065,"Perpignan"
"Aleu","P",28.049999999999997,73,"09",42.893742098,1.26749393485,"Saint-Girons"
"Argentine","P",28.859999999999996,82,"73",45.4893893107,6.33336554074,"Saint-Jean-de-Maurienne"
"Argenton-sur-Creuse","P",15.01,24,"36",46.5787862593,1.4926283101,"Châtre (La)"
"Argiésans","P",19.55,43,"90",47.6049743564,6.82328122613,"Belfort"
"Argiusta-Moriccio","P",21.74,94,"2A",41.815640033,9.0324658577,"Sartène"
"Argol","P",23.020000000000003,53,"29",48.2496052712,-4.29867172624,"Châteaulin"
"Arguel","P",25.520000000000003,43,"25",47.1842585224,6.00851020634,"Besançon"
"Arifat","P",22.529999999999998,73,"81",43.7758760162,2.3529229423,"Castres"
"Arlanc","P",13.85,83,"63",45.4207986655,3.72311154214,"Ambert"
"Arleuf","P",18.830000000000002,26,"58",47.0404133279,4.01572442394,"Château-Chinon"
"Armancourt","P",45.99,22,"60",49.370833099,2.76400949363,"Compiègne"
"Armaucourt","P",28.94,41,"54",48.8125986306,6.298257299,"Nancy"
"Armentières","P",44.050000000000004,31,"59",50.6913797537,2.8797155328,"Armentières"
"Armissan","P",46.22,91,"11",43.187641628,3.08927705991,"Narbonne"
"Arnac-la-Poste","P",16.080000000000002,74,"87",46.2639834442,1.37338277352,"Bellac"
"Arnac-sur-Dourdou","P",15.04,73,"12",43.7187010455,2.94592121582,"Millau"
"Arnave","P",28.31,73,"09",42.8522962517,1.64611606147,"Foix"
"Arnèke","P",17.63,31,"59",50.8416889858,2.41843292762,"Hazebrouck"
"Arnouville-lès-Mantes","P",38.209999999999994,11,"78",48.911006894,1.72043999321,"Mantes-la-Jolie"
"Arpajon","P",50.47,11,"91",48.5908921647,2.24349117607,"Arpajon"
"Arpheuilles","P",20.99,24,"36",46.8997863068,1.27397966099,"Blanc (Le)"
"Arquenay","P",16.25,52,"53",47.9860121101,-0.588034521359,"Laval"
"Arquettes-en-Val","P",24.24,91,"11",43.1050377635,2.49669784552,"Carcassonne"
"Arrancy","P",27.84,22,"02",49.4989016398,3.7647230005,"Laon"
"Arras-sur-Rhône","P",22.980000000000004,82,"07",45.1436776654,4.8036312124,"Tournon-sur-Rhône"
"Arraute-Charritte","P",7.590000000000001,72,"64",43.419824465,-1.11344095243,"Mauléon-Licharre"
"Arrelles","P",36.410000000000004,21,"10",48.0462178704,4.27438158257,"Bar-sur-Aube"
"Arreux","P",19.380000000000003,21,"08",49.8258643025,4.6613050432,"Charleville-Mézières"
"Arrigas","P",30.400000000000002,91,"30",43.9902038605,3.48117676072,"Vigan (Le)"
"Arro","P",21.32,94,"2A",42.0965260296,8.8040243417,"Ajaccio"
"Arronville","P",37.690000000000005,11,"95",49.1740736985,2.1128755699,"Cergy-Pontoise"
"Arry","P",21.8,22,"80",50.2821494192,1.72270579703,"Abbeville"
"Ambonville","P",25.180000000000003,21,"52",48.3139710416,5.01062838373,"Saint-Dizier"
"Ambrières","P",39.35,21,"51",48.629003135,4.82923701475,"Vitry-le-François"
"Ambutrix","P",25.549999999999997,82,"01",45.9367134524,5.3328092349,"Belley"
"Amendeuix-Oneix","P",7.590000000000001,72,"64",43.3445045858,-1.04369537456,"Mauléon-Licharre"
"Amenucourt","P",37.690000000000005,11,"95",49.11033118,1.65004984269,"Cergy-Pontoise"
"Cazenave-Serres-et-Allens","P",28.31,73,"09",42.8420776047,1.6911129703,"Foix"
"Cazes-Mondenard","P",37.0,73,"82",44.2128308252,1.21516583038,"Castelsarrasin"
"Cazouls-d'Hérault","P",51.9,91,"34",43.5018486169,3.45727466019,"Pézenas-Sète"
"Céaux-d'Allègre","P",11.420000000000002,83,"43",45.1831789556,3.7598519485,"Puy-en-Velay (Le)"
"Ceilhes-et-Rocozels","P",34.53,91,"34",43.809322318,3.09184232431,"Béziers"
"Celle-Lévescault","P",16.699999999999996,54,"86",46.3990380098,0.169884448212,"Poitiers"
"Cellefrouin","P",20.81,54,"16",45.8877573804,0.391851835711,"Confolens"
"Celles","P",34.1,91,"34",43.6663640232,3.35967873955,"Lodève"
"Celles-sur-Plaine","P",18.23,41,"88",48.4499228234,6.96838114646,"Saint-Dié-des-Vosges"
"Cellule","P",19.3,83,"63",45.9461134694,3.14687975818,"Riom"
"Cénac","P",32.779999999999994,72,"33",44.7826946723,-0.456684447802,"Bordeaux-Bastide"
"Cendrey","P",25.520000000000003,43,"25",47.39870448,6.24551247571,"Besançon"
"Cénevières","P",19.5,73,"46",44.4455008428,1.73871325371,"Cahors"
"Censerey","P",17.959999999999997,26,"21",47.1975226763,4.33557297312,"Montbard"
"Cepoy","P",35.489999999999995,24,"45",48.0508863567,2.74010416872,"Montargis"
"Cercié","P",21.67,82,"69",46.1259448157,4.66717778294,"Villefranche-sur-Saône"
"Cercles","P",21.97,72,"24",45.367110589,0.469505189702,"Ribérac"
"Cerdon","P",29.189999999999998,24,"45",47.6299186758,2.38147298677,"Gien"
"Cerfontaine","P",22.02,31,"59",50.2591419146,4.02505740703,"Avesnes-sur-Helpe"
"Cerisé","P",51.059999999999995,25,"61",48.4441981247,0.131476179306,"Alençon"
"Cerisy-la-Salle","P",12.620000000000001,25,"50",49.0364321556,-1.27126890359,"Coutances"
"Cernay","P",14.979999999999999,25,"14",49.0163802116,0.323907540392,"Lisieux"
"Cernay","P",19.99,42,"68",47.7945078153,7.17932820409,"Thann"
"Cernay-lès-Reims","P",34.58,21,"51",49.2538223791,4.10981558086,"Reims"
"Cernoy","P",32.43,22,"60",49.4426355659,2.53929202364,"Clermont"
"Cerny-lès-Bucy","P",27.84,22,"02",49.5778658953,3.54646763896,"Laon"
"Cerqueux","P",14.979999999999999,25,"14",48.9970064334,0.34767335012,"Lisieux"
"Cersot","P",19.060000000000002,26,"71",46.7053648589,4.63239889903,"Chalon-sur-Saône"
"Cervione","P",25.52,94,"2B",42.3210930584,9.5154262188,"Ghisonaccia"
"Césarville-Dossainville","P",32.64,24,"45",48.2628087686,2.28517501246,"Pithiviers"
"Cescau","P",18.33,72,"64",43.4123325253,-0.503690665578,"Orthez"
"Cesse","P",17.150000000000002,41,"55",49.5091057988,5.14445527647,"Verdun"
"Cessey-sur-Tille","P",24.919999999999998,26,"21",47.2826894363,5.22925864232,"Dijon"
"Cessoy-en-Montois","P",32.78,11,"77",48.5073073046,3.13884419418,"Provins"
"Cevins","P",51.13,82,"73",45.6094285678,6.4969871671,"Albertville"
"Ceyssac","P",11.420000000000002,83,"43",45.03515198,3.83028543045,"Puy-en-Velay (Le)"
"Ceyzériat","P",21.809999999999995,82,"01",46.1832170988,5.32007207542,"Bourg-en-Bresse"
"Cézan","P",23.36,73,"32",43.803230782,0.49733255319,"Condom"
"Chabeuil","P",47.69,82,"26",44.9082255842,5.00743034189,"Valence"
"Chabrac","P",20.81,54,"16",45.926486151,0.746752143002,"Confolens"
"Chabrignac","P",14.059999999999999,74,"19",45.3140230281,1.34219381764,"Brive-la-Gaillarde"
"Chacrise","P",24.39,22,"02",49.3002009035,3.39759102537,"Soissons"
"Chaffois","P",15.9,43,"25",46.9171603801,6.25633927954,"Pontarlier"
"Chahaignes","P",19.96,52,"72",47.752016178,0.513758960916,"Flèche (La)"
"Chailland","P",16.25,52,"53",48.2319686385,-0.868605352742,"Laval"
"Chaillevois","P",27.84,22,"02",49.5081654549,3.52234605948,"Laon"
"Chailloué","P",18.04,25,"61",48.6568911726,0.196513358702,"Alençon-Argentan"
"Chailly-sur-Armançon","P",24.460000000000004,26,"21",47.2731849062,4.47732423155,"Beaune"
"Chaise-Dieu-du-Theil","P",24.61,23,"27",48.7557442906,0.770932355905,"Evreux"
"Chalain-le-Comtal","P",20.71,82,"42",45.6411269141,4.17221132927,"Montbrison"
"Chalais","P",16.93,54,"16",45.2739548684,0.0385508867289,"Angoulême"
"Chalampé","P",28.22,42,"68",47.8321259921,7.54929893347,"Mulhouse"
"Chalautre-la-Petite","P",45.89,11,"77",48.5273173873,3.31527496472,"Provins"
"Chalette-sur-Voire","P",36.410000000000004,21,"10",48.4518666815,4.42460080275,"Bar-sur-Aube"
"Chalèze","P",25.520000000000003,43,"25",47.261122307,6.09541799233,"Besançon"
"Chalinargues","P",12.87,83,"15",45.1621460049,2.93209906595,"Saint-Flour"
"Challes","P",21.94,52,"72",47.9342773547,0.428982036509,"Mans (Le)"
"Challignac","P",22.45,54,"16",45.4236400106,-0.0845558170102,"Cognac"
"Chalon-sur-Saône","P",51.419999999999995,26,"71",46.7900288793,4.85191555008,"Chalon-sur-Saône"
"Châlons-en-Champagne","P",56.71000000000001,21,"51",48.9640892125,4.37883539725,"Châlons-en-Champagne"
"Châlonvillars","P",24.41,43,"70",47.6376239575,6.77677655233,"Lure"
"Chalvignac","P",8.47,83,"15",45.2475912738,2.26458985433,"Mauriac"
"Castiglione","P",21.18,94,"2B",42.4094045132,9.11404108561,"Corte"
"Castillon (Canton de Lembeye)","P",13.530000000000001,72,"64",43.4827393039,-0.12995598336,"Pau"
"Castillon-en-Couserans","P",28.049999999999997,73,"09",42.9165658331,1.05571963783,"Saint-Girons"
"Castilly","P",19.869999999999997,25,"14",49.2738212001,-1.01618091821,"Bayeux"
"Castineta","P",21.18,94,"2B",42.4281629327,9.27331954769,"Corte"
"Castries","P",51.81,91,"34",43.6886913473,3.97909849679,"Lunel"
"Catillon-Fumechon","P",32.43,22,"60",49.5268754931,2.37843374733,"Clermont"
"Cattenom","P",22.09,41,"57",49.4154747401,6.2351808823,"Thionville"
"Catus","P",19.5,73,"46",44.5584146549,1.34151024683,"Cahors"
"Caubon-Saint-Sauveur","P",31.93,72,"47",44.5927480005,0.184135065483,"Marmande"
"Caudebec-en-Caux","P",15.52,23,"76",49.5305126235,0.734830682082,"Yvetot"
"Caudiès-de-Conflent","P",34.37,91,"66",42.563639266,2.1426420364,"Prades"
"Caulaincourt","P",21.38,22,"02",49.864658382,3.11126489473,"Saint-Quentin"
"Caumont","P",28.049999999999997,73,"09",43.024099366,1.07931622344,"Saint-Girons"
"Caumont","P",12.51,73,"32",43.6914735474,-0.108660908583,"Mirande"
"Caumont-sur-Durance","P",43.269999999999996,93,"84",43.8913580487,4.95633077332,"Avignon"
"Caunette-sur-Lauquet","P",20.85,91,"11",43.027894163,2.42690541874,"Limoux"
"Caurel","P",34.58,21,"51",49.3039168337,4.14507952597,"Reims"
"Cauroy","P",21.57,21,"08",49.3512411409,4.45940865282,"Vouziers"
"Causse-Bégon","P",30.400000000000002,91,"30",44.0660478253,3.35485547926,"Vigan (Le)"
"Caussou","P",28.31,73,"09",42.7721552831,1.82193324504,"Foix"
"Cauvigny","P",33.080000000000005,22,"60",49.3026459577,2.24002692157,"Méru"
"Cauville-sur-Mer","P",21.910000000000004,23,"76",49.593844191,0.144981167051,"Havre (Le)"
"Cavaillon","P",61.46,93,"84",43.8508361826,5.03606300916,"Cavaillon"
"Cavignac","P",35.900000000000006,72,"33",45.096401427,-0.381910358061,"Blaye"
"Caychax","P",28.31,73,"09",42.8074176311,1.72818525568,"Foix"
"Cayriech","P",24.43,73,"82",44.2153908954,1.60546514624,"Montauban"
"Cazalrenoux","P",24.24,91,"11",43.1886848888,1.94714608711,"Carcassonne"
"Cazals","P",24.43,73,"82",44.1249834446,1.6848635445,"Montauban"
"Cazats","P",26.759999999999998,72,"33",44.473019034,-0.203200932598,"Langon"
"Cazaux-Fréchet-Anéran-Camors","P",20.43,73,"65",42.8433198052,0.433537773802,"Bagnères-de-Bigorre"
"Cazeaux-de-Larboust","P",25.51,73,"31",42.7515051317,0.532234410988,"Saint-Gaudens"
"Chamaloc","P",33.14,82,"26",44.8119455812,5.38565949855,"Die"
"Chambain","P",17.959999999999997,26,"21",47.7950502005,4.91900088796,"Montbard"
"Chambellay","P",20.939999999999998,52,"49",47.6887999605,-0.69354489611,"Segré"
"Chambéria","P",17.94,43,"39",46.4694472775,5.5703149623,"Lons-le-Saunier"
"Chambles","P",20.71,82,"42",45.4520672053,4.22612997142,"Montbrison"
"Chamboeuf","P",20.71,82,"42",45.5743049771,4.32163705727,"Montbrison"
"Sainte-Blandine","P",27.81,82,"38",45.5450974508,5.43494721601,"Tour-du-Pin (La)"
"Sainte-Catherine","P",13.85,83,"63",45.4508139616,3.47808095492,"Ambert"
"Sainte-Cécile-d'Andorge","P",32.11,91,"30",44.2612523618,3.98352862415,"Alès"
"Sainte-Christie","P",18.650000000000002,73,"32",43.7568936206,0.632111364488,"Auch"
"Sainte-Christine","P",15.66,52,"49",47.2890847169,-0.836795874774,"Cholet"
"Sainte-Colombe","P",17.959999999999997,26,"21",47.4272975926,4.46203899793,"Montbard"
"Sainte-Colombe","P",33.980000000000004,82,"69",45.5250030617,4.85931457938,"Givors"
"Sainte-Colombe-de-la-Commanderie","P",38.47,91,"66",42.6154060137,2.73987613858,"Perpignan"
"Sainte-Colombe-sur-Gand","P",10.76,82,"42",45.8677779412,4.28292761777,"Roanne"
"Sainte-Colome","P",16.16,72,"64",43.1097407715,-0.381940819142,"Oloron-Sainte-Marie"
"Sainte-Croix","P",30.450000000000003,82,"01",45.895522477,5.04935536228,"Trévoux"
"Sainte-Croix","P",19.5,73,"46",44.3460986757,1.15618835006,"Cahors"
"Sainte-Croix-de-Quintillargues","P",45.07000000000001,91,"34",43.7680759693,3.91047320364,"Castelnau-le-Lez"
"Sainte-Croix-Grand-Tonne","P",16.919999999999998,25,"14",49.2337047582,-0.556033226741,"Caen"
"Sainte-Croix-sur-Aizier","P",24.16,23,"27",49.4146315138,0.633740580449,"Pont-Audemer"
"Sainte-Croix-Volvestre","P",28.049999999999997,73,"09",43.1197309589,1.17100553891,"Saint-Girons"
"Sainte-Eulalie","P",24.24,91,"11",43.2427203696,2.20565895321,"Carcassonne"
"Sainte-Eulalie-d'Eymet","P",20.48,72,"24",44.7093311565,0.35938458115,"Bergerac"
"Sainte-Eusoye","P",29.380000000000003,22,"60",49.5752040683,2.25015619286,"Beauvais"
"Sainte-Flaive-des-Loups","P",28.450000000000003,52,"85",46.611019489,-1.58031627863,"Sables d'Olonne (Les)"
"Sainte-Florine","P",15.779999999999998,83,"43",45.4018591959,3.30958888923,"Brioude"
"Sainte-Foy","P",13.1,23,"76",49.7989403084,1.1394452282,"Dieppe"
"Sainte-Foy-l'Argentière","P",32.71,82,"69",45.7046028711,4.4705436953,"Arbresle (L')"
"Sainte-Foy-Tarentaise","P",51.13,82,"73",45.5842289817,6.94134524499,"Albertville"
"Sainte-Gemme","P",28.32,54,"17",45.7749267656,-0.892730905107,"Saintes"
"Sainte-Gemme","P",18.939999999999998,54,"79",46.8997139729,-0.282960726169,"Bressuire"
"Sainte-Gemmes-d'Andigné","P",20.939999999999998,52,"49",47.6660928171,-0.895241558075,"Segré"
"Sainte-Geneviève","P",28.94,41,"54",48.8702243582,6.13715548513,"Nancy"
"Sainte-Geneviève","P",20.66,23,"76",49.6585101081,1.42293352559,"Neufchâtel-en-Bray"
"Sainte-Hélène","P",32.64,72,"33",44.9726615806,-0.913525242529,"Lesparre-Médoc"
"Sainte-Hélène-sur-Isère","P",51.13,82,"73",45.6022927013,6.32652357893,"Albertville"
"Sainte-Honorine-la-Chardonne","P",15.580000000000002,25,"61",48.8247345941,-0.476136278421,"Domfront"
"Sainte-Juliette-sur-Viaur","P",9.94,73,"12",44.2186396438,2.50113925253,"Rodez"
"Sainte-Lizaigne","P",22.15,24,"36",47.0110071957,1.99544056226,"Issoudun"
"Sainte-Marguerite","P",15.779999999999998,83,"43",45.2105754797,3.58257296293,"Brioude"
"Sainte-Marguerite-en-Ouche","P",26.09,23,"27",49.0196621847,0.65169689762,"Bernay"
"Sainte-Marie","P",21.53,93,"05",44.4639998729,5.47415675357,"Gap"
"Sainte-Marie","P",12.87,83,"15",44.8925014312,2.88292989924,"Saint-Flour"
"Sainte-Marie","P",20.43,73,"65",42.9691035062,0.628958999643,"Bagnères-de-Bigorre"
"Sainte-Marie-Cappel","P",17.63,31,"59",50.780208006,2.51589636551,"Hazebrouck"
"Sainte-Marie-de-Gosse","P",34.44,72,"40",43.5519446169,-1.23258094215,"Dax"
"Sainte-Marie-de-Vatimesnil","P",29.400000000000006,23,"27",49.2721801587,1.58233388295,"Andelys (Les)"
"Sainte-Marie-du-Lac-Nuisement","P",39.35,21,"51",48.6009118806,4.76140676125,"Vitry-le-François"
"Sainte-Marie-la-Robert","P",18.04,25,"61",48.6261229757,-0.143899474106,"Alençon-Argentan"
"Sainte-Marthe","P",24.61,23,"27",48.957887614,0.881178066443,"Evreux"
"Sainte-Menehould","P",32.91,21,"51",49.0865774658,4.94259439229,"Châlons-en-Champagne"
"Sainte-Montaine","P",25.499999999999996,24,"18",47.5015231113,2.32162111568,"Vierzon"
"Sainte-Néomaye","P",18.869999999999997,54,"79",46.3617084983,-0.263692629127,"Niort"
"Sainte-Orse","P",19.78,72,"24",45.2054528162,1.07317374722,"Périgueux"
"Sainte-Pience","P",15.36,25,"50",48.7713169182,-1.29851023982,"Avranches"
"Sainte-Radegonde","P",20.48,72,"24",44.6845072022,0.677670644919,"Bergerac"
"Sainte-Radegonde","P",30.36,72,"33",44.8030043488,0.0238709656269,"Libourne"
"Sainte-Ramée","P",29.24,54,"17",45.419274916,-0.664112168706,"Jonzac"
"Sainte-Sabine","P",24.460000000000004,26,"21",47.1875125214,4.62169164492,"Beaune"
"Sainte-Segrée","P",32.160000000000004,22,"80",49.7602729981,1.91464272826,"Montdidier"
"Sainte-Souline","P",22.45,54,"16",45.3774799244,-0.0211237715554,"Cognac"
"Sainte-Terre","P",30.36,72,"33",44.8338850704,-0.120538591172,"Libourne"
"Sainte-Tulle","P",35.86,93,"04",43.7830482525,5.77302331731,"Forcalquier"
"Saintines","P",46.8,22,"60",49.3020445014,2.76780194989,"Senlis"
"Sainville","P",30.81,24,"28",48.4153857478,1.88200624319,"Lucé"
"Saires-la-Verrerie","P",15.580000000000002,25,"61",48.6896183653,-0.4875928451,"Domfront"
"Saix","P",15.8,54,"86",47.1417376447,0.00673655616709,"Châtellerault"
"Salagnon","P",33.57,82,"38",45.6684234149,5.35714106149,"Bourgoin-Jallieu"
"Salavas","P",26.229999999999997,82,"07",44.3884517023,4.36713374298,"Largentière"
"Salazac","P",46.870000000000005,91,"30",44.2565156091,4.53650899935,"Bagnols-sur-Cèze"
"Saleignes","P",32.03,54,"17",46.0171498466,-0.185321832625,"Saint-Jean-d'Angély"
"Salernes","P",39.22,93,"83",43.5621099339,6.22873067235,"Draguignan"
"Salettes","P",11.420000000000002,83,"43",44.866504818,3.98094125791,"Puy-en-Velay (Le)"
"Salignac","P",35.86,93,"04",44.1571681055,5.98824785964,"Forcalquier"
"Saligney","P",24.46,43,"39",47.2229745913,5.63681673671,"Dole"
"Saligny","P",36.32,26,"89",48.2154264712,3.35240862773,"Sens"
"Salinelles","P",57.49,91,"30",43.8113201948,4.06673339715,"Vauvert"
"Sallanches","P",42.91,82,"74",45.9468155788,6.60711053078,"Chamonix"
"Sallèles-d'Aude","P",46.22,91,"11",43.2700227368,2.93528136754,"Narbonne"
"Sallenelles","P",16.919999999999998,25,"14",49.2637001725,-0.233420635581,"Caen"
"Salles","P",19.700000000000003,73,"65",43.0304838604,-0.170939051228,"Argelès-Gazost"
"Salles-d'Angles","P",22.45,54,"16",45.6192884058,-0.344548280548,"Cognac"
"Salles-de-Villefagnan","P",20.81,54,"16",45.9599094427,0.17124025939,"Confolens"
"Salles-Lavalette","P",16.93,54,"16",45.3880236045,0.23183888353,"Angoulême"
"Salles-sur-Mer","P",31.950000000000003,54,"17",46.1025147874,-1.05196380014,"Rochelle (La)"
"Salon","P",33.36,21,"10",48.6427112307,4.01781744354,"Nogent-sur-Seine"
"Salornay-sur-Guye","P",24.58,26,"71",46.5174514836,4.6006444858,"Mâcon"
"Salvagnac","P",25.05,73,"81",43.9201151478,1.67981306162,"Gaillac"
"Salza","P",24.24,91,"11",42.9854396478,2.5059068011,"Carcassonne"
"Samadet","P",18.24,72,"40",43.6301574528,-0.49120862479,"Mont-de-Marsan"
"Sambin","P",27.34,24,"41",47.4324580301,1.27722712969,"Romorantin-Lanthenay"
"Sammeron","P",40.69,11,"77",48.9415743758,3.07701664102,"Coulommiers"
"Samonac","P",35.900000000000006,72,"33",45.0708411612,-0.571604822734,"Blaye"
"Samouillan","P",25.51,73,"31",43.2672173655,0.949728378128,"Saint-Gaudens"
"Sampolo","P",21.74,94,"2A",41.9468987764,9.12053513385,"Sartène"
"San-Gavino-di-Carbini","P",21.74,94,"2A",41.6806017168,9.23310910423,"Sartène"
"San-Lorenzo","P",21.18,94,"2B",42.3897522574,9.28923196943,"Corte"
"Sancerre","P",24.410000000000004,24,"18",47.3256994042,2.82156691385,"Bourges"
"Sancoins","P",25.020000000000003,24,"18",46.8245784906,2.91377950744,"Saint-Amand-Montrond"
"Sancourt","P",16.839999999999996,31,"59",50.2144498638,3.19130962776,"Cambrai"
"Sancy-lès-Provins","P",32.78,11,"77",48.7095987707,3.39288392593,"Provins"
"Sangatte","P",45.660000000000004,31,"62",50.9410415453,1.76958356617,"Calais"
"Sannat","P",14.680000000000001,74,"23",46.1229856338,2.41539962939,"Aubusson"
"Augnat","P",18.82,83,"63",45.4140216179,3.17930900469,"Issoire"
"Augy","P",24.39,22,"02",49.340063724,3.5110198819,"Soissons"
"Augy-sur-Aubois","P",25.020000000000003,24,"18",46.7829151486,2.85715092019,"Saint-Amand-Montrond"
"Aujeurres","P",25.62,21,"52",47.7387809421,5.17295673992,"Langres"
"Aulnay","P",36.410000000000004,21,"10",48.4783453651,4.41533916578,"Bar-sur-Aube"
"Aulnay-sous-Bois","P",81.86,11,"93",48.9458384367,2.49329041687,"Aulnay-sous-Bois"
"Aulnay-sur-Marne","P",32.91,21,"51",48.9973425988,4.20731510255,"Châlons-en-Champagne"
"Aulnois-sur-Seille","P",15.78,41,"57",48.8619380667,6.32824523031,"Sarrebourg"
"Aulon","P",20.43,73,"65",42.8566915829,0.263308131503,"Bagnères-de-Bigorre"
"Aumagne","P",32.03,54,"17",45.880093124,-0.411702053139,"Saint-Jean-d'Angély"
"Aumessas","P",30.400000000000002,91,"30",44.0113365754,3.51374005993,"Vigan (Le)"
"Aumont-Aubrac","P",15.629999999999999,91,"48",44.7233900467,3.28132614741,"Mende"
"Aumontzey","P",18.23,41,"88",48.1668032397,6.77899213053,"Saint-Dié-des-Vosges"
"Aunay-les-Bois","P",18.04,25,"61",48.5466721031,0.29333748049,"Alençon-Argentan"
"Aunou-sur-Orne","P",18.04,25,"61",48.6057819219,0.238232234334,"Alençon-Argentan"
"Auradé","P",18.650000000000002,73,"32",43.5585584214,1.07381651463,"Auch"
"Auragne","P",39.699999999999996,73,"31",43.3912857783,1.50909342818,"Villefranche-de-Lauragais"
"Aureilhan","P",32.63,72,"40",44.2117478981,-1.1894638558,"Parentis-en-Born"
"Aurensan","P",17.720000000000002,73,"65",43.3062200799,0.0955012093615,"Tarbes"
"Auriac-du-Périgord","P",17.16,72,"24",45.1125569337,1.12728719792,"Sarlat-la-Canéda"
"Auriac-sur-Dropt","P",31.93,72,"47",44.6544707799,0.243508495124,"Marmande"
"Auribeau-sur-Siagne","P",48.37,93,"06",43.612406867,6.91211356657,"Cannes"
"Aurin","P",37.96,73,"31",43.5351953574,1.68120009719,"Toulouse Saint-Michel"
"Aurons","P",43.22,93,"13",43.6715125585,5.14903600713,"Salon-de-Provence"
"Aussevielle","P",13.530000000000001,72,"64",43.3584012455,-0.479170118376,"Pau"
"Aussonne","P",35.41,73,"31",43.6836034494,1.32887054853,"Toulouse Mirail"
"Aussurucq","P",7.590000000000001,72,"64",43.1289596051,-0.978843273973,"Mauléon-Licharre"
"Auterive","P",18.650000000000002,73,"32",43.5796421888,0.632117026282,"Auch"
"Authe","P",21.57,21,"08",49.460146318,4.87768322282,"Vouziers"
"Autheux","P",22.44,22,"80",50.1395423257,2.2331435159,"Amiens"
"Authezat","P",21.41,83,"63",45.6385828582,3.19313623822,"Clermont-Ferrand"
"Authiou","P",18.830000000000002,26,"58",47.2653242927,3.41891982538,"Château-Chinon"
"Angiens","P",16.82,23,"76",49.8336959193,0.798984210018,"Fécamp"
"Anglars-Juillac","P",19.5,73,"46",44.4865010847,1.20855960816,"Cahors"
"Angles","P",36.629999999999995,93,"04",43.9443293069,6.55232063474,"Castellane"
"Anglès","P",22.529999999999998,73,"81",43.550474503,2.58241545036,"Castres"
"Angliers","P",31.950000000000003,54,"17",46.2061055614,-0.949106581868,"Rochelle (La)"
"Angos","P",17.720000000000002,73,"65",43.1986038545,0.161492581105,"Tarbes"
"Angoustrine-Villeneuve-des-Escaldes","P",34.37,91,"66",42.5644340706,1.95068130074,"Prades"
"Angoville-sur-Ay","P",12.620000000000001,25,"50",49.2524922524,-1.55151030219,"Coutances"
"Anguilcourt-le-Sart","P",27.84,22,"02",49.6940879195,3.42823182437,"Laon"
"Anizy-le-Château","P",27.84,22,"02",49.5045058305,3.43129584952,"Laon"
"Anla","P",20.43,73,"65",43.0053698793,0.591471549126,"Bagnères-de-Bigorre"
"Anlhiac","P",19.78,72,"24",45.3214606994,1.12082705606,"Périgueux"
"Annebault","P",26.03,25,"14",49.248966024,0.054049962802,"Deauville"
"Annequin","P",32.91,31,"62",50.5032887953,2.71958159288,"Béthune"
"Anneville-en-Saire","P",11.070000000000002,25,"50",49.6362063201,-1.2855537086,"Cherbourg-Octeville"
"Annoeullin","P",27.330000000000002,31,"59",50.5265153703,2.92753629479,"Lille"
"Annonay","P",22.980000000000004,82,"07",45.2460902392,4.65026947295,"Tournon-sur-Rhône"
"Annot","P",36.629999999999995,93,"04",43.9620009704,6.66395811566,"Castellane"
"Anos","P",13.530000000000001,72,"64",43.3974753128,-0.289222563999,"Pau"
"Ansac-sur-Vienne","P",20.81,54,"16",45.9943029714,0.619730334325,"Confolens"
"Anse","P",21.67,82,"69",45.9422570443,4.70796670026,"Villefranche-sur-Saône"
"Anserville","P",33.080000000000005,22,"60",49.2305172458,2.20613910366,"Méru"
"Antagnac","P",31.93,72,"47",44.3562107379,-0.00209058322762,"Marmande"
"Antheny","P",21.35,21,"08",49.8444301625,4.30477603028,"Revin"
"Anthy-sur-Léman","P",33.93,82,"74",46.3530564511,6.42748586139,"Léman"
"Antigny","P",12.24,54,"86",46.5360016424,0.839149696505,"Montmorillon"
"Antisanti","P",25.52,94,"2B",42.1562385991,9.38406808296,"Ghisonaccia"
"Antoigné","P",24.459999999999997,52,"49",47.0784768788,-0.131764667589,"Saumur"
"Antony","P",53.57000000000001,11,"92",48.7503412602,2.2993268102,"Antony"
"Antugnac","P",20.85,91,"11",42.9622347688,2.21863246536,"Limoux"
"Any-Martin-Rieux","P",37.550000000000004,22,"02",49.8823706752,4.22351346907,"Vervins"
"Anzeling","P",17.189999999999998,41,"57",49.2683112384,6.46229391409,"Boulay-Moselle"
"Athie","P",17.959999999999997,26,"21",47.5619563649,4.25784537484,"Montbard"
"Athies-sous-Laon","P",47.410000000000004,22,"02",49.5757750686,3.69006632109,"Laon"
"Attancourt","P",25.180000000000003,21,"52",48.5345882518,4.94426693506,"Saint-Dizier"
"Attignat-Oncin","P",34.489999999999995,82,"73",45.5141356972,5.77930411133,"Chambéry"
"Attigny","P",21.57,21,"08",49.4761720465,4.58492485149,"Vouziers"
"Atton","P",28.94,41,"54",48.892928495,6.11100019961,"Nancy"
"Aubais","P",57.49,91,"30",43.7490254454,4.1457680936,"Vauvert"
"Aube","P",25.24,41,"57",49.0251696747,6.3360717944,"Metz"
"Aubencheul-aux-Bois","P",21.38,22,"02",50.0239903854,3.26103215604,"Saint-Quentin"
"Aubercourt","P",32.160000000000004,22,"80",49.8378941809,2.54731400317,"Montdidier"
"Auberive","P",25.62,21,"52",47.7789330347,5.10722171802,"Langres"
"Aubermesnil-Beaumais","P",13.1,23,"76",49.847513728,1.12124254365,"Dieppe"
"Aubervilliers","P",94.46000000000001,11,"93",48.9121722626,2.38445513768,"Aubervilliers"
"Aubiac","P",26.759999999999998,72,"33",44.4707892679,-0.244457363295,"Langon"
"Aubiat","P",19.3,83,"63",45.9806227322,3.19256070994,"Riom"
"Aubignas","P",19.589999999999996,82,"07",44.5854785853,4.63389075909,"Privas"
"Aubigny","P",23.379999999999995,54,"79",46.7272853814,-0.104552795327,"Parthenay"
"Aubigny-en-Artois","P",16.729999999999997,31,"62",50.3482767559,2.58650720649,"Saint-Pol-sur-Ternoise"
"Aubigny-en-Plaine","P",24.460000000000004,26,"21",47.1277492064,5.16492120772,"Beaune"
"Aubilly","P",34.58,21,"51",49.2127739521,3.85555629436,"Reims"
"Aubord","P",57.49,91,"30",43.7512111654,4.31715969164,"Vauvert"
"Aubrives","P",21.35,21,"08",50.0873542875,4.76694917171,"Revin"
"Aubusson","P",14.680000000000001,74,"23",45.9509017497,2.16588054786,"Aubusson"
"Aucaleuc","P",19.13,53,"22",48.4513138492,-2.12726351859,"Dinan"
"Aucamville","P",24.43,73,"82",43.7960241357,1.22532777135,"Montauban"
"Auchel","P",35.760000000000005,31,"62",50.5103339678,2.4687078329,"Auchel"
"Aucun","P",19.700000000000003,73,"65",42.9857652582,-0.201428304348,"Argelès-Gazost"
"Audenge","P",34.14,72,"33",44.7138966628,-0.944173294479,"Arcachon"
"Audes","P",11.770000000000001,83,"03",46.4607707399,2.55904786289,"Montluçon"
"Audignies","P",22.02,31,"59",50.2783465062,3.82456125193,"Avesnes-sur-Helpe"
"Audouville-la-Hubert","P",11.070000000000002,25,"50",49.4170404243,-1.22666547902,"Cherbourg-Octeville"
"Audrix","P",17.16,72,"24",44.8830682379,0.948494393836,"Sarlat-la-Canéda"
"Ambricourt","P",19.16,31,"62",50.4655698983,2.17120117891,"Ecuires"
"Ambronay","P",25.549999999999997,82,"01",46.0055913782,5.35760660735,"Belley"
"Ambrumesnil","P",13.1,23,"76",49.8584810142,0.983755211163,"Dieppe"
"Amelécourt","P",15.78,41,"57",48.8406895704,6.48798103824,"Sarrebourg"
"Germaines","P",25.62,21,"52",47.7994372317,5.02777502578,"Langres"
"Germenay","P",18.830000000000002,26,"58",47.2891665195,3.60058784085,"Château-Chinon"
"Germigney","P",24.46,43,"39",47.0384440113,5.68614106484,"Dole"
"Germigny-des-Prés","P",27.580000000000002,24,"45",47.8392387669,2.26614623984,"Orléans"
"Germisay","P",25.180000000000003,21,"52",48.3907421507,5.36918258943,"Saint-Dizier"
"Germonville","P",28.94,41,"54",48.4096245856,6.21787659153,"Nancy"
"Gernelle","P",19.380000000000003,21,"08",49.7731869901,4.82389442529,"Charleville-Mézières"
"Gerstheim","P",20.27,42,"67",48.3807788366,7.70453174528,"Sélestat"
"Gesnes","P",16.25,52,"53",48.1503325044,-0.593903165779,"Laval"
"Gesté","P",15.66,52,"49",47.1822178615,-1.11256762268,"Cholet"
"Geudertheim","P",13.62,42,"67",48.7154836732,7.76052070487,"Haguenau"
"Geville","P",21.080000000000002,41,"55",48.7799328844,5.70340084835,"Commercy"
"Gevresin","P",25.520000000000003,43,"25",46.9637143049,6.04884299454,"Besançon"
"Geyssans","P",35.3,82,"26",45.1234537531,5.09201692077,"Romans-sur-Isère"
"Ghisoni","P",25.52,94,"2B",42.0908261041,9.21026781601,"Ghisonaccia"
"Gibel","P",39.699999999999996,73,"31",43.3026504146,1.67636064192,"Villefranche-de-Lauragais"
"Gibles","P",15.540000000000001,26,"71",46.3179773987,4.38022998111,"Charolles"
"Gien","P",29.189999999999998,24,"45",47.71227944,2.66549550204,"Gien"
"Gif-sur-Yvette","P",43.68999999999999,11,"91",48.6988273634,2.12788365005,"Palaiseau"
"Gignac","P",39.089999999999996,93,"84",43.9285109892,5.52308716414,"Pertuis"
"Gignat","P",18.82,83,"63",45.4865085499,3.21841465193,"Issoire"
"Gigny-Bussy","P",39.35,21,"51",48.6098773154,4.58918617422,"Vitry-le-François"
"Gildwiller","P",15.11,42,"68",47.6967983198,7.14022952947,"Altkirch"
"Gillaumé","P",25.180000000000003,21,"52",48.4693259695,5.34579090105,"Saint-Dizier"
"Gilly-sur-Isère","P",51.13,82,"73",45.653102038,6.3498533574,"Albertville"
"Gimeaux","P",19.3,83,"63",45.9488128227,3.09815848902,"Riom"
"Gimel-les-Cascades","P",13.33,74,"19",45.3041231992,1.84214988096,"Ussel"
"Ginals","P",24.43,73,"82",44.2198870277,1.87837880794,"Montauban"
"Ginestet","P",20.48,72,"24",44.904098467,0.437644888806,"Bergerac"
"Giocatojo","P",30.34,94,"2B",42.4437069082,9.34587387627,"Bastia"
"Giou-de-Mamou","P",9.879999999999999,83,"15",44.9352952684,2.50768962826,"Aurillac"
"Giraumont","P",19.019999999999996,41,"54",49.173261325,5.91605842347,"Conflans-en-Jarnisy"
"Folles","P",16.080000000000002,74,"87",46.1248930681,1.45625971523,"Bellac"
"Folleville","P",32.160000000000004,22,"80",49.6776909768,2.3550476043,"Montdidier"
"Fonbeauzard","P",37.96,73,"31",43.6798211278,1.43492132755,"Toulouse Saint-Michel"
"Fondettes","P",26.939999999999998,24,"37",47.4111012484,0.603284318045,"Tours"
"Fonroque","P",20.48,72,"24",44.7047696483,0.40989488566,"Bergerac"
"Fons","P",32.11,91,"30",43.9072744554,4.18054520529,"Alès"
"Font-Romeu-Odeillo-Via","P",34.37,91,"66",42.513242501,2.02697700093,"Prades"
"Fontaine-Bellenger","P",23.19,23,"27",49.1802280169,1.2530305732,"Louviers"
"Fontaine-de-Vaucluse","P",43.269999999999996,93,"84",43.9220820962,5.13125424344,"Avignon"
"Fontaine-Guérin","P",22.850000000000005,52,"49",47.4829167789,-0.174198642479,"Angers"
"Fontaine-la-Gaillarde","P",36.32,26,"89",48.2246784203,3.4008490535,"Sens"
"Fontaine-la-Louvet","P",26.09,23,"27",49.1584396153,0.445984273017,"Bernay"
"Fontaine-le-Bourg","P",17.899999999999995,23,"76",49.5707934376,1.15722862543,"Rouen"
"Fontaine-les-Bassets","P",18.04,25,"61",48.8614123081,0.00290765242172,"Alençon-Argentan"
"Fontaine-les-Coteaux","P",16.57,24,"41",47.798872695,0.835689448447,"Vendôme"
"Fontaine-lès-Dijon","P",46.67,26,"21",47.347590176,5.0247087947,"Dijon"
"Fontaine-lès-Vervins","P",37.550000000000004,22,"02",49.8537390603,3.90543025367,"Vervins"
"Fontaine-sous-Jouy","P",24.61,23,"27",49.0644082735,1.28056210161,"Evreux"
"Fontaine-sur-Somme","P",21.8,22,"80",50.0246616547,1.94061931752,"Abbeville"
"Fontainebleau","P",43.83,11,"77",48.4066856508,2.68031396389,"Fontainebleau"
"Fontaines-d'Ozillac","P",29.24,54,"17",45.3786053942,-0.382932208818,"Jonzac"
"Fontaines-sur-Saône","P",42.050000000000004,82,"69",45.8282811054,4.85664595594,"Lyon"
"Fontanès","P",57.49,91,"30",43.8315622077,4.09323827432,"Vauvert"
"Fontanières","P",14.680000000000001,74,"23",46.1071405466,2.51926577888,"Aubusson"
"Fontclaireau","P",20.81,54,"16",45.8918936624,0.196980841137,"Confolens"
"Fontcouverte","P",28.32,54,"17",45.767715256,-0.590510817969,"Saintes"
"Fontenailles","P",26.180000000000003,26,"89",47.6309292904,3.47197357688,"Auxerre"
"Fontenay-aux-Roses","P",42.38000000000001,11,"92",48.7897301312,2.28723493557,"Châtenay-Malabry - Sceaux"
"Fontenay-le-Marmion","P",16.68,25,"14",49.0870178586,-0.34496703891,"Falaise"
"Fontenay-le-Vicomte","P",41.24,11,"91",48.5468386132,2.40068041051,"Evry"
"Fontenay-Saint-Père","P",38.209999999999994,11,"78",49.0279919911,1.75448471704,"Mantes-la-Jolie"
"Gaudreville-la-Rivière","P",24.61,23,"27",48.9601606074,1.0298861236,"Evreux"
"Gaujacq","P",34.44,72,"40",43.6385051915,-0.741684144139,"Dax"
"Gauville","P",22.82,25,"61",48.8195765588,0.540343467256,"Mortagne-au-Perche"
"Gavaudun","P",19.59,72,"47",44.5686971966,0.893249631816,"Villeneuve-sur-Lot"
"Gayan","P",17.720000000000002,73,"65",43.3046479242,0.0486919047842,"Tarbes"
"Gazax-et-Baccarisse","P",12.51,73,"32",43.6018826171,0.196554642255,"Mirande"
"Gazost","P",19.700000000000003,73,"65",43.0007012116,0.0235191133565,"Argelès-Gazost"
"Gée","P",22.850000000000005,52,"49",47.4675586075,-0.230572798219,"Angers"
"Geiswasser","P",20.89,42,"68",47.9780603798,7.60554789815,"Colmar"
"Gellainville","P",30.81,24,"28",48.4162199686,1.53530515243,"Lucé"
"Gelles","P",17.83,83,"63",45.7617631556,2.77069441162,"Bourboule (La )"
"Gelvécourt-et-Adompt","P",28.84,41,"88",48.2008667754,6.17865808407,"Neufchâteau"
"Gémil","P",37.96,73,"31",43.7390147281,1.59616914343,"Toulouse Saint-Michel"
"Genac","P",20.81,54,"16",45.8009500924,0.021470943172,"Confolens"
"Genas","P",43.019999999999996,82,"69",45.7297209932,5.01590344241,"Bron"
"Gendreville","P",28.84,41,"88",48.2354061751,5.71584808429,"Neufchâteau"
"Générac","P",35.900000000000006,72,"33",45.1736695574,-0.545835107473,"Blaye"
"Genestelle","P",26.229999999999997,82,"07",44.7366148286,4.38522824539,"Largentière"
"Geney","P",21.02,43,"25",47.4831400587,6.565729093,"Montbéliard"
"Génis","P",19.78,72,"24",45.3306277228,1.16364841419,"Périgueux"
"Génissieux","P",35.3,82,"26",45.0819148,5.09023746222,"Romans-sur-Isère"
"Gennes-sur-Glaize","P",20.209999999999997,52,"53",47.8440286792,-0.586296420609,"Château-Gontier"
"Genod","P",17.94,43,"39",46.3574309784,5.52980105214,"Lons-le-Saunier"
"Genouillac","P",11.25,74,"23",46.3446574595,1.9934844532,"Guéret"
"Genouillé","P",12.24,54,"86",46.101002656,0.338161906694,"Montmorillon"
"Gensac","P",17.720000000000002,73,"65",43.4335645933,0.0908531453962,"Tarbes"
"Gentilly","P",66.26,11,"94",48.8132044389,2.34420659702,"Le Kremlin-Bicêtre"
"Ger","P",15.36,25,"50",48.6718461689,-0.802951577458,"Avranches"
"Geraise","P",24.46,43,"39",46.9582339732,5.95511287439,"Dole"
"Gerbécourt","P",15.78,41,"57",48.8513266231,6.51598424383,"Sarrebourg"
"Gerde","P",20.43,73,"65",43.0586379729,0.177947425719,"Bagnères-de-Bigorre"
"Gergy","P",19.060000000000002,26,"71",46.8791801218,4.92129441098,"Chalon-sur-Saône"
"Fyé","P",19.92,52,"72",48.3232043088,0.081600822719,"Mamers"
"Gabat","P",7.590000000000001,72,"64",43.3765147976,-1.03114679811,"Mauléon-Licharre"
"Gacé","P",18.04,25,"61",48.790215977,0.308446478408,"Alençon-Argentan"
"Gageac-et-Rouillac","P",20.48,72,"24",44.8038484874,0.357689330262,"Bergerac"
"Gagnac-sur-Garonne","P",37.96,73,"31",43.7075932093,1.36359468155,"Toulouse Saint-Michel"
"Amfreville","P",16.919999999999998,25,"14",49.2501431721,-0.241578864111,"Caen"
"Amfreville-sur-Iton","P",23.19,23,"27",49.1567317794,1.14647315258,"Louviers"
"Amigny-Rouy","P",27.84,22,"02",49.6108275885,3.30289341579,"Laon"
"Ammerzwiller","P",15.11,42,"68",47.6926147527,7.16944522071,"Altkirch"
"Amont-et-Effreney","P",24.41,43,"70",47.8672344964,6.56250054881,"Lure"
"Amou","P",34.44,72,"40",43.5938659835,-0.743678079626,"Dax"
"Ampoigné","P",20.209999999999997,52,"53",47.8051436119,-0.823338302617,"Château-Gontier"
"Anais","P",20.81,54,"16",45.7689915038,0.206024179916,"Confolens"
"Anceins","P",22.82,25,"61",48.8666826921,0.498099277059,"Mortagne-au-Perche"
"Ancemont","P",17.150000000000002,41,"55",49.0649831287,5.38366026137,"Verdun"
"Ancey","P",24.919999999999998,26,"21",47.3337177684,4.82268168932,"Dijon"
"Ancinnes","P",19.92,52,"72",48.3603390007,0.173826931122,"Mamers"
"Ancretiéville-Saint-Victor","P",15.52,23,"76",49.6545166114,0.967454665493,"Yvetot"
"Ancy-le-Libre","P",31.3,26,"89",47.8056331303,4.14511090809,"Avallon"
"Andard","P",22.850000000000005,52,"49",47.4817019575,-0.390969580549,"Angers"
"Andel","P",20.769999999999996,53,"22",48.4944929623,-2.55104146851,"Saint-Brieuc"
"Andelat","P",12.87,83,"15",45.0699830319,3.05933407794,"Saint-Flour"
"Andernos-les-Bains","P",34.14,72,"33",44.754520164,-1.08109347037,"Arcachon"
"Andillac","P",25.05,73,"81",44.0051181728,1.89353888985,"Gaillac"
"Andilly","P",23.21,41,"54",48.7670812602,5.88801466262,"Toul"
"Andlau","P",20.27,42,"67",48.3907003871,7.38488102933,"Sélestat"
"Andouillé-Neuville","P",17.09,53,"35",48.2975724468,-1.5958926629,"Montfort-sur-Meu"
"Andrésy","P",52.83,11,"78",48.9815454378,2.05025746939,"Conflans-Sainte-Honorine"
"Andrezel","P",34.74,11,"77",48.6145967279,2.8066323497,"Melun"
"Anet","P",30.520000000000003,24,"28",48.8531068723,1.44282251415,"Dreux"
"Angeduc","P",22.45,54,"16",45.4783133378,-0.0552960913383,"Cognac"
"Attiches","P",27.330000000000002,31,"59",50.5138938279,3.06223374765,"Lille"
"Attilloncourt","P",15.78,41,"57",48.7904278549,6.38552204812,"Sarrebourg"
"Attricourt","P",20.28,43,"70",47.487861891,5.41120963466,"Vesoul"
"Aubas","P",17.16,72,"24",45.0793796872,1.19807010544,"Sarlat-la-Canéda"
"Aubéguimont","P",20.66,23,"76",49.8094901556,1.67974843453,"Neufchâtel-en-Bray"
"Aubenas-les-Alpes","P",35.86,93,"04",43.9335584163,5.67694693989,"Forcalquier"
"Aubepierre-Ozouer-le-Repos","P",34.74,11,"77",48.620275445,2.90287523402,"Melun"
"Auberives-en-Royans","P",33.06,82,"38",45.0650470606,5.31134637668,"Saint-Marcellin"
"Aubertin","P",13.530000000000001,72,"64",43.2716852677,-0.480982579779,"Pau"
"Auberville-la-Campagne","P",21.910000000000004,23,"76",49.5357823366,0.595896350685,"Havre (Le)"
"Aubeterre-sur-Dronne","P",16.93,54,"16",45.2609347512,0.16792049879,"Angoulême"
"Aubière","P",54.45,83,"63",45.7510558385,3.126134119,"Clermont-Ferrand"
"Aubigné","P",18.869999999999997,54,"79",46.0427853144,-0.146119185079,"Niort"
"Aubignosc","P",35.86,93,"04",44.1182449561,5.95734484907,"Forcalquier"
"Aubigny","P",19.79,52,"85",46.6028241769,-1.46743549114,"Roche-sur-Yon (La)"
"Aubigny-les-Pothées","P",19.380000000000003,21,"08",49.7645065042,4.42763979942,"Charleville-Mézières"
"Aubin","P",13.530000000000001,72,"64",43.4356805812,-0.421465763214,"Pau"
"Aubous","P",13.530000000000001,72,"64",43.5761449327,-0.141071694882,"Pau"
"Aubry-du-Hainaut","P",47.779999999999994,31,"59",50.3759590091,3.4522066329,"Valenciennes"
"Aubry-le-Panthou","P",18.04,25,"61",48.8545964209,0.227741225949,"Alençon-Argentan"
"Aubusson-d'Auvergne","P",26.98,83,"63",45.7532116404,3.59888416853,"Thiers"
"Aucelon","P",33.14,82,"26",44.6170780241,5.35427948419,"Die"
"Auchy-au-Bois","P",12.399999999999999,31,"62",50.5505941226,2.37330907284,"Béthune"
"Auchy-lès-Hesdin","P",16.729999999999997,31,"62",50.4085719795,2.09530419017,"Saint-Pol-sur-Ternoise"
"Audelange","P",24.46,43,"39",47.14070332,5.58399367432,"Dole"
"Audeville","P",32.64,24,"45",48.2801416057,2.24290241893,"Pithiviers"
"Audigny","P",21.38,22,"02",49.8660645425,3.6312599901,"Saint-Quentin"
"Audressein","P",28.049999999999997,73,"09",42.9305094861,1.02016808143,"Saint-Girons"
"Audun-le-Roman","P",18.520000000000003,41,"54",49.3679143393,5.89363457214,"Briey"
"Auenheim","P",13.62,42,"67",48.8090909724,8.01736090911,"Haguenau"
"Auflance","P",20.320000000000004,21,"08",49.6152631354,5.29558462267,"Sedan"
"Augea","P",17.94,43,"39",46.5620792374,5.38938272802,"Lons-le-Saunier"
"Algolsheim","P",20.89,42,"68",48.0034942953,7.54980840525,"Colmar"
"Alincthun","P",16.82,31,"62",50.7213979047,1.81018390432,"Calais"
"Alissas","P",25.85,82,"07",44.7070337034,4.6240636083,"Privas"
"Allaines","P",30.85,22,"80",49.9632577527,2.9374491434,"Péronne"
"Allan","P",37.660000000000004,82,"26",44.4942339425,4.79847467163,"Pierrelatte"
"Allas-Champagne","P",29.24,54,"17",45.4726406982,-0.339612863623,"Jonzac"
"Allemagne-en-Provence","P",36.629999999999995,93,"04",43.7887902464,6.03091832001,"Castellane"
"Allemant","P",37.22,21,"51",48.7615346017,3.8160207846,"Epernay"
"Allenay","P",21.8,22,"80",50.0864703319,1.49294201709,"Abbeville"
"Allerey","P",24.460000000000004,26,"21",47.1905039427,4.42062511101,"Beaune"
"Allèves","P",30.32,82,"74",45.7588655872,6.08634740225,"Annecy"
"Alleyrat","P",14.680000000000001,74,"23",45.9878416933,2.15421492891,"Aubusson"
"Alliancelles","P",39.35,21,"51",48.8033869619,4.87418519758,"Vitry-le-François"
"Allières","P",23.6,73,"09",43.0385438599,1.36390734959,"Pamiers"
"Allondaz","P",51.13,82,"73",45.7116530326,6.37223835121,"Albertville"
"Allonnes","P",24.459999999999997,52,"49",47.3034746947,0.0111127082363,"Saumur"
"Allons","P",24.39,72,"47",44.1933826797,-0.0800075386017,"Nérac"
"Alloue","P",20.81,54,"16",46.0204552645,0.5258351895,"Confolens"
"Almayrac","P",13.15,73,"81",44.0989296815,2.155985909,"Albi"
"Alos-Sibas-Abense","P",7.590000000000001,72,"64",43.1129165102,-0.877966906276,"Mauléon-Licharre"
"Alteckendorf","P",20.64,42,"67",48.7944549979,7.59641028848,"Strasbourg"
"Altier","P",15.629999999999999,91,"48",44.459680191,3.85680054017,"Mende"
"Altkirch","P",15.11,42,"68",47.6210336538,7.24484329622,"Altkirch"
"Aluze","P",19.060000000000002,26,"71",46.8518515249,4.6901351827,"Chalon-sur-Saône"
"Alzonne","P",24.24,91,"11",43.2652998624,2.17459434048,"Carcassonne"
"Amance","P",36.410000000000004,21,"10",48.2918540736,4.4870489216,"Bar-sur-Aube"
"Amance","P",20.28,43,"70",47.7905088546,6.05331685795,"Vesoul"
"Amanty","P",21.080000000000002,41,"55",48.5151526576,5.60410565546,"Commercy"
"Amazy","P",26.35,26,"58",47.3830839935,3.56104962023,"Cosne-Cours-sur-Loire"
"Ambel","P",34.89000000000001,82,"38",44.7995432334,5.93325975329,"Mure (La)"
"Amberre","P",16.699999999999996,54,"86",46.7578511349,0.153603662903,"Poitiers"
"Aregno","P",39.43,94,"2B",42.591747308,8.8768922389,"Calvi"
"Aressy","P",41.15,72,"64",43.2780475519,-0.328128024391,"Pau"
"Argagnon","P",18.33,72,"64",43.4617440342,-0.676305200735,"Orthez"
"Argançon","P",36.410000000000004,21,"10",48.2503053567,4.59608826027,"Bar-sur-Aube"
"Argelès-sur-Mer","P",43.760000000000005,91,"66",42.5352193463,3.02429862885,"Céret"
"Argens-Minervois","P",46.22,91,"11",43.2458340699,2.77062357779,"Narbonne"
"Argenteuil","P",49.14,11,"95",48.9511344629,2.2410409502,"Argenteuil"
"Ars-les-Favets","P",19.3,83,"63",46.2002650376,2.74850375721,"Riom"
"Arsonval","P",36.410000000000004,21,"10",48.2796312677,4.65067065173,"Bar-sur-Aube"
"Artaise-le-Vivier","P",20.320000000000004,21,"08",49.5719309826,4.89264459284,"Sedan"
"Artalens-Souin","P",19.700000000000003,73,"65",42.9782578727,-0.0414043062586,"Argelès-Gazost"
"Chambolle-Musigny","P",24.919999999999998,26,"21",47.1867543205,4.94446710185,"Dijon"
"Chambon-la-Forêt","P",32.64,24,"45",48.0490368743,2.28348190868,"Pithiviers"
"Chambonas","P",26.229999999999997,82,"07",44.4263051358,4.12909504882,"Largentière"
"Chamboret","P",16.080000000000002,74,"87",46.0056617581,1.12492081757,"Bellac"
"Chamboulive","P",14.059999999999999,74,"19",45.4270783097,1.70936524222,"Brive-la-Gaillarde"
"Chambrecy","P",34.58,21,"51",49.1821738115,3.82605710701,"Reims"
"Chambrey","P",15.78,41,"57",48.7961903159,6.45461384881,"Sarrebourg"
"Chamelet","P",21.67,82,"69",45.9847097998,4.4986606687,"Villefranche-sur-Saône"
"Chamilly","P",19.060000000000002,26,"71",46.8667282501,4.68139596476,"Chalon-sur-Saône"
"Chamouille","P",27.84,22,"02",49.4720646954,3.67062673062,"Laon"
"Chamousset","P",34.489999999999995,82,"73",45.5652468191,6.20689994252,"Chambéry"
"Champ-Dolent","P",24.61,23,"27",48.9588653377,1.00803800645,"Evreux"
"Champ-sur-Layon","P",22.850000000000005,52,"49",47.2634009053,-0.569361775219,"Angers"
"Champagnac-la-Prune","P",13.33,74,"19",45.1894490228,1.93781703813,"Ussel"
"Champagne","P",31.880000000000003,54,"17",45.8298794044,-0.91672258016,"Rochefort"
"Champagne-et-Fontaine","P",21.97,72,"24",45.4290860632,0.336264937907,"Ribérac"
"Champagné-les-Marais","P",21.259999999999998,52,"85",46.3735020647,-1.13380723653,"Fontenay-le-Comte"
"Champagne-sur-Seine","P",33.97,11,"77",48.4093568314,2.8079339272,"Moret-sur-Loing"
"Champagnole","P",17.94,43,"39",46.7445389751,5.8988102947,"Lons-le-Saunier"
"Champallement","P",18.830000000000002,26,"58",47.2284006437,3.48161378948,"Château-Chinon"
"Champaubert","P",37.22,21,"51",48.8878457413,3.76608740283,"Epernay"
"Champcevinel","P",19.78,72,"24",45.2212466708,0.725037549995,"Périgueux"
"Champdieu","P",20.71,82,"42",45.6413921035,4.0502490993,"Montbrison"
"Champdray","P",18.23,41,"88",48.1281659319,6.75998154739,"Saint-Dié-des-Vosges"
"Champeaux","P",18.12,53,"35",48.1387131553,-1.30145243997,"Vitré"
"Champeix","P",18.82,83,"63",45.5840997399,3.12859021721,"Issoire"
"Carresse-Cassaber","P",18.33,72,"64",43.4867092033,-0.999430077721,"Orthez"
"Carry-le-Rouet","P",46.58,93,"13",43.3427663021,5.15373765817,"Istres"
"Cartelègue","P",35.900000000000006,72,"33",45.1912964207,-0.578370670079,"Blaye"
"Carves","P",17.16,72,"24",44.7854908288,1.06057699804,"Sarlat-la-Canéda"
"Casalabriva","P",21.74,94,"2A",41.7604107379,8.92486438361,"Sartène"
"Caseneuve","P",39.089999999999996,93,"84",43.8888688666,5.47985826048,"Pertuis"
"Cassagne","P",25.51,73,"31",43.1242700684,0.991401965489,"Saint-Gaudens"
"Cassaniouze","P",9.879999999999999,83,"15",44.673900395,2.38094248357,"Aurillac"
"Cassignas","P",21.96,72,"47",44.3000939624,0.781102690761,"Agen"
"Casson","P",28.480000000000004,52,"44",47.3920308092,-1.55573718805,"Ancenis"
"Castagnède","P",18.33,72,"64",43.4556389583,-0.974073017031,"Orthez"
"Castanet-le-Haut","P",34.53,91,"34",43.6738023402,2.95490649454,"Béziers"
"Casteide-Doat","P",13.530000000000001,72,"64",43.3740019876,-0.0110617940773,"Pau"
"Castel-Sarrazin","P",34.44,72,"40",43.6176642945,-0.787879351472,"Dax"
"Castelfranc","P",19.5,73,"46",44.5046854945,1.22357367692,"Cahors"
"Castellare-di-Casinca","P",30.34,94,"2B",42.4705671665,9.50131455475,"Bastia"
"Castelmary","P",17.400000000000002,73,"12",44.1721922742,2.24442015696,"Villefranche-de-Rouergue"
"Castelnau-d'Anglès","P",12.51,73,"32",43.6164688819,0.295821312988,"Mirande"
"Castelnau-de-Brassac","P",22.529999999999998,73,"81",43.6578748652,2.52758390349,"Castres"
"Castelnau-de-Lévis","P",13.15,73,"81",43.9437169399,2.07110041598,"Albi"
"Castelnau-le-Lez","P",45.07000000000001,91,"34",43.6380218809,3.91265416028,"Castelnau-le-Lez"
"Castelnau-sur-l'Auvignon","P",23.36,73,"32",43.9635207971,0.471654890782,"Condom"
"Castelnaudary","P",41.59,91,"11",43.3230173159,1.96073752488,"Castelnaudary"
"Castelner","P",18.24,72,"40",43.5522725117,-0.591274524303,"Mont-de-Marsan"
"Castelsarrasin","P",52.9,73,"82",44.0490326525,1.12348123121,"Castelsarrasin"
"Castéra-Loubix","P",13.530000000000001,72,"64",43.4059390869,-0.034605507142,"Pau"
"Castéron","P",23.36,73,"32",43.9028241046,0.868621810839,"Condom"
"Castetbon","P",18.33,72,"64",43.3972591089,-0.792417128449,"Orthez"
"Castets","P",34.44,72,"40",43.87403966,-1.14528108058,"Dax"
"Chastanier","P",15.629999999999999,91,"48",44.722639702,3.75305127719,"Mende"
"Chastel-sur-Murat","P",12.87,83,"15",45.1360561715,2.84458101678,"Saint-Flour"
"Château-Arnoux-Saint-Auban","P",35.86,93,"04",44.0854706133,5.99239535024,"Forcalquier"
"Château-Chinon (Campagne)","P",18.830000000000002,26,"58",47.056080506,3.9410750203,"Château-Chinon"
"Château-d'Olonne","P",33.94,52,"85",46.4925968813,-1.72127222048,"Les Sables-d'Olonne"
"Château-Gontier","P",20.209999999999997,52,"53",47.8290067122,-0.738721767875,"Château-Gontier"
"Château-Larcher","P",16.699999999999996,54,"86",46.4163092918,0.300807728817,"Poitiers"
"Château-Salins","P",15.78,41,"57",48.8192996978,6.49319554209,"Sarrebourg"
"Château-sur-Cher","P",19.3,83,"63",46.1168680835,2.56878532043,"Riom"
"Château-Ville-Vieille","P",27.830000000000002,93,"05",44.7677289666,6.8000656504,"Briançon"
"Châteaudouble","P",47.69,82,"26",44.8995418259,5.09042220366,"Valence"
"Châteaugay","P",19.3,83,"63",45.8537260918,3.09327050267,"Riom"
"Châteauneuf","P",34.489999999999995,82,"73",45.5473788658,6.18096637147,"Chambéry"
"Châteauneuf-de-Bordette","P",35.68,82,"26",44.3367876244,5.17129087386,"Nyons"
"Châteauneuf-de-Gadagne","P",43.269999999999996,93,"84",43.9276331683,4.94259114535,"Avignon"
"Châteauneuf-du-Pape","P",35.67,93,"84",44.0595884031,4.82728435607,"Orange"
"Châteauneuf-Miravail","P",35.86,93,"04",44.153315213,5.71757262461,"Forcalquier"
"Châteauneuf-sur-Sarthe","P",20.939999999999998,52,"49",47.6841712906,-0.495930395639,"Segré"
"Châteauneuf-Val-Saint-Donat","P",35.86,93,"04",44.0954534225,5.93054683108,"Forcalquier"
"Châteauroux","P",39.38,24,"36",46.8029617828,1.69399812001,"Châteauroux"
"Châteauvilain","P",33.57,82,"38",45.5138631652,5.33027661744,"Bourgoin-Jallieu"
"Châtel-de-Joux","P",15.47,43,"39",46.5296472131,5.80925298746,"Saint-Claude"
"Châtel-Gérard","P",31.3,26,"89",47.6281248856,4.10542157906,"Avallon"
"Châtel-sur-Moselle","P",19.52,41,"88",48.3198523928,6.40067968782,"Remiremont"
"Châtelblanc","P",15.9,43,"25",46.6650467334,6.10624023722,"Pontarlier"
"Châtelneuf","P",20.71,82,"42",45.6388781024,3.97962390788,"Montbrison"
"Châtelus-Malvaleix","P",11.25,74,"23",46.2969350634,2.03300541639,"Guéret"
"Châtenay-en-France","P",48.949999999999996,11,"95",49.0649154148,2.46274737647,"Argenteuil"
"Châtenay-Malabry","P",42.38000000000001,11,"92",48.7681690197,2.26282598525,"Châtenay-Malabry - Sceaux"
"Châtenois","P",24.46,43,"39",47.1503115201,5.54630681574,"Dole"
"Châtenoy-en-Bresse","P",19.060000000000002,26,"71",46.7936385088,4.91410813762,"Chalon-sur-Saône"
"Châtillon","P",17.94,43,"39",46.6626648157,5.7273967644,"Lons-le-Saunier"
"Charency-Vezin","P",18.520000000000003,41,"54",49.4847390739,5.51467592253,"Briey"
"Charentilly","P",26.939999999999998,24,"37",47.4686972065,0.595174138773,"Tours"
"Charenton-le-Pont","P",58.91,11,"94",48.8228084978,2.40760915477,"Charenton-le-Pont"
"Charézier","P",17.94,43,"39",46.6145121643,5.72720293776,"Lons-le-Saunier"
"Charlas","P",25.51,73,"31",43.2348620217,0.69256790688,"Saint-Gaudens"
"Charleville-sous-Bois","P",25.24,41,"57",49.1959515116,6.4063041025,"Metz"
"Charmauvillers","P",21.02,43,"25",47.2312832249,6.91715529579,"Montbéliard"
"Charmes","P",23.65,22,"02",49.6508532429,3.38525104222,"Tergnier - La Fère"
"Charmes","P",25.62,21,"52",47.9205445894,5.3544393191,"Langres"
"Charmes-Saint-Valbert","P",20.28,43,"70",47.7316041443,5.70856900371,"Vesoul"
"Charmois-devant-Bruyères","P",18.23,41,"88",48.1715459649,6.59203655593,"Saint-Dié-des-Vosges"
"Charmont-sous-Barbuise","P",31.4,21,"10",48.4150600401,4.18047013925,"Rosières-près-Troyes"
"Sannois","P",49.14,11,"95",48.9717773111,2.25299514112,"Argenteuil"
"Sansa","P",34.37,91,"66",42.6192728881,2.18058547197,"Prades"
"Sant'Andréa-d'Orcino","P",21.32,94,"2A",42.0443583536,8.78903370453,"Ajaccio"
"Santa-Lucia-di-Moriani","P",25.52,94,"2B",42.3840957627,9.51068685295,"Ghisonaccia"
"Santa-Maria-Figaniella","P",21.74,94,"2A",41.725389582,9.00886511105,"Sartène"
"Santans","P",24.46,43,"39",47.0417658474,5.66601850009,"Dole"
"Santeuil","P",30.81,24,"28",48.3828802713,1.7401363101,"Lucé"
"Santo-Pietro-di-Tenda","P",30.34,94,"2B",42.6724371425,9.20380969804,"Bastia"
"Sanxay","P",16.699999999999996,54,"86",46.4960318018,-0.00840229241339,"Poitiers"
"Saorge","P",39.7,93,"06",43.9935318832,7.53767348426,"Menton"
"Saou","P",33.14,82,"26",44.6470256973,5.11072905542,"Die"
"Sapois","P",17.94,43,"39",46.7473328196,5.94642241824,"Lons-le-Saunier"
"Sarbazan","P",18.24,72,"40",44.0138235777,-0.311945706682,"Mont-de-Marsan"
"Sarcey","P",14.799999999999999,21,"52",48.057274539,5.29800666302,"Chaumont"
"Sarcos","P",12.51,73,"32",43.3702423264,0.681801871432,"Mirande"
"Sardieu","P",35.449999999999996,82,"38",45.3601004595,5.22079778885,"Vienne"
"Sari-Solenzara","P",60.949999999999996,94,"2A",41.8133599634,9.35220683826,"Porto-Vecchio"
"Sarliac-sur-l'Isle","P",19.78,72,"24",45.2398639331,0.866391236032,"Périgueux"
"Sarrageois","P",15.9,43,"25",46.7039578947,6.23498989806,"Pontarlier"
"Sarrance","P",16.16,72,"64",43.0446957599,-0.575631142614,"Oloron-Sainte-Marie"
"Sarras","P",22.980000000000004,82,"07",45.1872505321,4.78407766188,"Tournon-sur-Rhône"
"Sarrebourg","P",37.49,41,"57",48.7379661581,7.04683266422,"Sarrebourg"
"Sarriac-Bigorre","P",17.720000000000002,73,"65",43.3885175976,0.117612400735,"Tarbes"
"Sarron","P",18.24,72,"40",43.5898061385,-0.266240073155,"Mont-de-Marsan"
"Sarroux","P",13.33,74,"19",45.4307878428,2.46791610907,"Ussel"
"Sars-le-Bois","P",16.729999999999997,31,"62",50.2975025898,2.43161426138,"Saint-Pol-sur-Ternoise"
"Sarzay","P",15.01,24,"36",46.5974798538,1.90704131796,"Châtre (La)"
"Sassegnies","P",22.02,31,"59",50.1790384849,3.79850687638,"Avesnes-sur-Helpe"
"Sassenay","P",19.060000000000002,26,"71",46.8332708433,4.91806482813,"Chalon-sur-Saône"
"Sassey-sur-Meuse","P",17.150000000000002,41,"55",49.4119703128,5.18704970118,"Verdun"
"Satolas-et-Bonce","P",33.57,82,"38",45.682504844,5.12584106732,"Bourgoin-Jallieu"
"Saubrigues","P",34.44,72,"40",43.6077345999,-1.32232554723,"Dax"
"Sauclières","P",15.04,73,"12",43.9797470303,3.37516953256,"Millau"
"Saugeot","P",15.47,43,"39",46.6037434659,5.82427975186,"Saint-Claude"
"Saugnacq-et-Muret","P",32.63,72,"40",44.3899336803,-0.855507920611,"Parentis-en-Born"
"Saujac","P",17.400000000000002,73,"12",44.4777699225,1.90179850313,"Villefranche-de-Rouergue"
"Saulchery","P",32.849999999999994,22,"02",48.9756405479,3.31260850509,"Château-Thierry"
"Saules","P",25.520000000000003,43,"25",47.1247786594,6.20093911163,"Besançon"
"Saulgé","P",12.24,54,"86",46.3667330907,0.865861579177,"Montmorillon"
"Saulieu","P",17.959999999999997,26,"21",47.2840306915,4.23192469784,"Montbard"
"Saulny","P",25.24,41,"57",49.1602800907,6.09502895041,"Metz"
"Sault-de-Navailles","P",18.33,72,"64",43.5406415198,-0.676491082021,"Orthez"
"Sault-Saint-Remy","P",22.490000000000002,21,"08",49.4246765802,4.15669310399,"Rethel"
"Saulx-le-Duc","P",17.409999999999997,26,"21",47.5504780732,5.02209606556,"Is-sur-Tille"
"Saulxures-lès-Bulgnéville","P",28.84,41,"88",48.1919857407,5.81576543656,"Neufchâteau"
"Saulzet","P",15.879999999999999,83,"03",46.1377242918,3.22134877309,"Vichy"
"Saumeray","P",19.7,24,"28",48.2515939221,1.31885104886,"Châteaudun"
"Saunay","P",25.7,24,"37",47.5987929508,0.95907236748,"Amboise"
"Sauqueville","P",13.1,23,"76",49.8482791922,1.05950261168,"Dieppe"
"Sausheim","P",28.22,42,"68",47.7824980107,7.40065794746,"Mulhouse"
"Saussens","P",39.699999999999996,73,"31",43.590855656,1.72440998002,"Villefranche-de-Lauragais"
"Saussey","P",12.620000000000001,25,"50",49.0115191307,-1.42526649012,"Coutances"
"Saussines","P",51.81,91,"34",43.758954777,4.05038800559,"Lunel"
"Sauto","P",34.37,91,"66",42.5155748521,2.14916955893,"Prades"
"Sauvagnon","P",13.530000000000001,72,"64",43.3933131319,-0.389091623871,"Pau"
"Sauvelade","P",18.33,72,"64",43.3913713418,-0.716491969468,"Orthez"
"Sauveterre","P",37.0,73,"82",44.2678274881,1.2726165468,"Castelsarrasin"
"Sauveterre-la-Lémance","P",19.59,72,"47",44.5874333431,1.03791242819,"Villeneuve-sur-Lot"
"Sauviac","P",12.51,73,"32",43.4094830661,0.45725685306,"Mirande"
"Sauvignac","P",22.45,54,"16",45.2586469785,-0.0772578283204,"Cognac"
"Sauville","P",28.84,41,"88",48.1485506254,5.74281944188,"Neufchâteau"
"Saux-et-Pomarède","P",25.51,73,"31",43.1487043658,0.704879959692,"Saint-Gaudens"
"Sauze","P",25.52,93,"06",44.0852199876,6.80072324584,"Puget-Théniers"
"Sauzet","P",19.5,73,"46",44.418405817,1.25953529906,"Cahors"
"Savenès","P",24.43,73,"82",43.830592054,1.18506891098,"Montauban"
"Savères","P",44.88,73,"31",43.3725748924,1.10003164798,"Muret"
"Saveuse","P",66.53,22,"80",49.8961064636,2.20932519977,"Amiens"
"Savignac","P",26.759999999999998,72,"33",44.5147062102,-0.108846337932,"Langon"
"Savignac-les-Ormeaux","P",28.31,73,"09",42.6824950812,1.77944672349,"Foix"
"Savigné-l'Évêque","P",21.94,52,"72",48.0834488074,0.287812838107,"Mans (Le)"
"Savigny","P",25.62,21,"52",47.7178107179,5.64399328349,"Langres"
"Savigny-en-Sancerre","P",24.410000000000004,24,"18",47.4437813454,2.7982040526,"Bourges"
"Savigny-en-Terre-Plaine","P",31.3,26,"89",47.4935874843,4.08358510886,"Avallon"
"Savigny-lès-Beaune","P",24.460000000000004,26,"21",47.0806321437,4.80342918013,"Beaune"
"Savigny-sur-Braye","P",16.57,24,"41",47.86966042,0.831215929044,"Vendôme"
"Savilly","P",17.959999999999997,26,"21",47.1223537467,4.27774791948,"Montbard"
"Savins","P",32.78,11,"77",48.5115912505,3.20518344066,"Provins"
"Savonnières-devant-Bar","P",33.57,41,"55",48.7489756437,5.17589243702,"Bar-le-Duc"
"Saxel","P",28.23,82,"74",46.2447795601,6.40325461428,"Thonon-les-Bains"
"Sazeray","P",15.01,24,"36",46.4467096197,2.04531579946,"Châtre (La)"
"Sazos","P",19.700000000000003,73,"65",42.8560542087,-0.0430560934464,"Argelès-Gazost"
"Sceaux","P",31.3,26,"89",47.5189022968,4.01877053906,"Avallon"
"Schaeffersheim","P",20.27,42,"67",48.4340220417,7.61316826135,"Sélestat"
"Scharrachbergheim-Irmstett","P",17.189999999999998,42,"67",48.5896337884,7.4902817682,"Molsheim"
"Schirrhein","P",13.62,42,"67",48.7957460013,7.91694869062,"Haguenau"
"Schneckenbusch","P",15.78,41,"57",48.6959536942,7.08168211214,"Sarrebourg"
"Schopperten","P",14.68,42,"67",48.9475398723,7.05381254412,"Saverne"
"Schwindratzheim","P",20.64,42,"67",48.765401982,7.60282147839,"Strasbourg"
"Scieurac-et-Flourès","P",12.51,73,"32",43.5570732793,0.19848716736,"Mirande"
"Scillé","P",18.869999999999997,54,"79",46.5996427928,-0.556961185783,"Niort"
"Scrupt","P",39.35,21,"51",48.7158651738,4.80888603123,"Vitry-le-François"
"Seboncourt","P",21.38,22,"02",49.9626066437,3.49425998163,"Saint-Quentin"
"Séchault","P",21.57,21,"08",49.2714856559,4.73688759461,"Vouziers"
"Secondigny","P",23.379999999999995,54,"79",46.6116427776,-0.441850125966,"Parthenay"
"Séderon","P",35.68,82,"26",44.1975046499,5.55416093649,"Nyons"
"Sedzère","P",13.530000000000001,72,"64",43.3402761138,-0.180181129359,"Pau"
"Ségalas","P",17.720000000000002,73,"65",43.4098505398,0.130234005775,"Tarbes"
"Ségoufielle","P",18.650000000000002,73,"32",43.6308520432,1.13179553628,"Auch"
"Segrois","P",24.460000000000004,26,"21",47.1609641771,4.89333944973,"Beaune"
"Ameugny","P",24.58,26,"71",46.5238475796,4.66808403552,"Mâcon"
"Amfreville-la-Mi-Voie","P",48.3,23,"76",49.4044285564,1.12471250441,"Rouen"
"Amfreville-les-Champs","P",15.52,23,"76",49.6985248041,0.826235482496,"Yvetot"
"Amifontaine","P",27.84,22,"02",49.498787026,3.92278993322,"Laon"
"Amirat","P",31.01,93,"06",43.8962973508,6.81255950456,"Grasse"
"Amoncourt","P",20.28,43,"70",47.7347259725,6.06263685163,"Vesoul"
"Amplepuis","P",21.67,82,"69",45.9651984924,4.32676291669,"Villefranche-sur-Saône"
"Ampuis","P",33.980000000000004,82,"69",45.503261775,4.8031868522,"Givors"
"Amuré","P",18.869999999999997,54,"79",46.2569032806,-0.608681235963,"Niort"
"Ance","P",16.16,72,"64",43.1445987386,-0.687615665018,"Oloron-Sainte-Marie"
"Ancerville","P",25.24,41,"57",49.032956145,6.39803240304,"Metz"
"Anché","P",16.699999999999996,54,"86",46.3496375961,0.270285912605,"Poitiers"
"Ancienville","P",24.39,22,"02",49.2186389559,3.20808809779,"Soissons"
"Ancourt","P",13.1,23,"76",49.9085547953,1.17898885458,"Dieppe"
"Ancy","P",21.67,82,"69",45.8321615079,4.50376874726,"Villefranche-sur-Saône"
"Andance","P",22.980000000000004,82,"07",45.2279590632,4.79738593664,"Tournon-sur-Rhône"
"Andé","P",23.19,23,"27",49.2280273549,1.24535712004,"Louviers"
"Andelarre","P",20.28,43,"70",47.5902572051,6.09074936306,"Vesoul"
"Andelu","P",38.209999999999994,11,"78",48.8882282833,1.81107773324,"Mantes-la-Jolie"
"Andeville","P",33.080000000000005,22,"60",49.257573184,2.16834997777,"Méru"
"Andilly-en-Bassigny","P",25.62,21,"52",47.9283690025,5.52049253052,"Langres"
"Andon","P",31.01,93,"06",43.7769856778,6.82318647257,"Grasse"
"Andornay","P",24.41,43,"70",47.6586648001,6.59842406878,"Lure"
"Andres","P",16.82,31,"62",50.8658312835,1.91824266934,"Calais"
"Anduze","P",32.11,91,"30",44.0507893674,3.97484165309,"Alès"
"Angé","P",27.34,24,"41",47.3165186023,1.23978157464,"Romorantin-Lanthenay"
"Angeac-Charente","P",22.45,54,"16",45.6230428074,-0.0817275722505,"Cognac"
"Angers","P",47.879999999999995,52,"49",47.476837416,-0.556125995444,"Angers"
"Angervilliers","P",34.09,11,"91",48.5911202876,2.05864904136,"Etampes"
"Authou","P",24.16,23,"27",49.2260820687,0.696761680662,"Pont-Audemer"
"Autignac","P",34.53,91,"34",43.4997194171,3.16767512449,"Béziers"
"Autoreille","P",20.28,43,"70",47.370625269,5.82479172929,"Vesoul"
"Autrechêne","P",19.55,43,"90",47.5919647033,6.96347182318,"Belfort"
"Autrecourt-et-Pourron","P",20.320000000000004,21,"08",49.6066112918,5.01792506561,"Sedan"
"Autretot","P",15.52,23,"76",49.6553610045,0.7278467274,"Yvetot"
"Autrey","P",18.23,41,"88",48.2892300642,6.7239757963,"Saint-Dié-des-Vosges"
"Abainville","P",21.080000000000002,41,"55",48.5326982449,5.51524727317,"Commercy"
"Abbans-Dessous","P",25.520000000000003,43,"25",47.1340668703,5.87286847337,"Besançon"
"Abbeville","P",53.52,22,"80",50.1083582944,1.83209170207,"Abbeville"
"Abeilhan","P",51.9,91,"34",43.4575019905,3.29923508306,"Pézenas-Sète"
"Abidos","P",18.33,72,"64",43.3951950748,-0.628336499241,"Orthez"
"Ablaincourt-Pressoir","P",30.85,22,"80",49.8413195623,2.82481058921,"Péronne"
"Ablancourt","P",39.35,21,"51",48.8103417636,4.53084843791,"Vitry-le-François"
"Aboën","P",20.71,82,"42",45.412713546,4.12725438172,"Montbrison"
"Abos","P",16.16,72,"64",43.3538742135,-0.550692004112,"Oloron-Sainte-Marie"
"Abzac","P",20.81,54,"16",46.0995520567,0.715822844014,"Confolens"
"Accolans","P",21.02,43,"25",47.4906236179,6.53413561581,"Montbéliard"
"Achen","P",11.49,41,"57",49.046252952,7.18366864797,"Sarreguemines"
"Acheux-en-Vimeu","P",21.8,22,"80",50.0660366423,1.67027205864,"Abbeville"
"Achiet-le-Petit","P",18.33,31,"62",50.1256395888,2.7552096399,"Arras"
"Acqueville","P",16.68,25,"14",48.9707723348,-0.370569787923,"Falaise"
"Acy-en-Multien","P",46.8,22,"60",49.1087771245,2.95509279724,"Senlis"
"Adaincourt","P",17.189999999999998,41,"57",49.0059162559,6.44419024928,"Boulay-Moselle"
"Adast","P",19.700000000000003,73,"65",42.9753854058,-0.0764342583386,"Argelès-Gazost"
"Adissan","P",51.9,91,"34",43.535473519,3.42608475989,"Pézenas-Sète"
"Affléville","P",18.520000000000003,41,"54",49.2639666613,5.75288845363,"Briey"
"Affracourt","P",28.94,41,"54",48.458337046,6.16536195039,"Nancy"
"Agen","P",54.49999999999999,72,"47",44.2028139104,0.625583928763,"Agen"
"Aghione","P",25.52,94,"2B",42.0985000918,9.41152525552,"Ghisonaccia"
"Agneaux","P",38.519999999999996,25,"50",49.1154902114,-1.12991373053,"Saint-Lô"
"Agnos","P",16.16,72,"64",43.1539224601,-0.62932795894,"Oloron-Sainte-Marie"
"Agonges","P",13.33,83,"03",46.6180197037,3.14884278466,"Moulins"
"Agris","P",16.93,54,"16",45.7764888287,0.328082067918,"Angoulême"
"Agy","P",19.869999999999997,25,"14",49.2376795165,-0.779194569684,"Bayeux"
"Aibes","P",22.02,31,"59",50.233709404,4.09622701433,"Avesnes-sur-Helpe"
"Aiglemont","P",19.380000000000003,21,"08",49.7902205775,4.77008728822,"Charleville-Mézières"
"Aigleville","P",24.61,23,"27",49.0059752091,1.42580857291,"Evreux"
"Aigne","P",34.53,91,"34",43.3255517298,2.79308395136,"Béziers"
"Argenton-les-Vallées","P",18.939999999999998,54,"79",46.9784261272,-0.468875242934,"Bressuire"
"Argenvières","P",24.410000000000004,24,"18",47.1407710364,2.99229956887,"Bourges"
"Argers","P",32.91,21,"51",49.0667880865,4.85773458093,"Châlons-en-Champagne"
"Argilly","P",24.460000000000004,26,"21",47.0685552309,5.02486486976,"Beaune"
"Argoules","P",21.8,22,"80",50.3376452337,1.81790740998,"Abbeville"
"Argut-Dessous","P",25.51,73,"31",42.8924379244,0.715516624447,"Saint-Gaudens"
"Arhansus","P",7.590000000000001,72,"64",43.2548502906,-1.02446609378,"Mauléon-Licharre"
"Arith","P",34.489999999999995,82,"73",45.7213212651,6.06342859728,"Chambéry"
"Arles-sur-Tech","P",43.760000000000005,91,"66",42.4498186611,2.62632454224,"Céret"
"Arlos","P",25.51,73,"31",42.874241036,0.695211627437,"Saint-Gaudens"
"Armendarits","P",7.590000000000001,72,"64",43.2995874286,-1.16163775322,"Mauléon-Licharre"
"Armentières-sur-Ourcq","P",32.849999999999994,22,"02",49.1734232511,3.38789647903,"Château-Thierry"
"Armes","P",26.35,26,"58",47.4629608534,3.562292348,"Cosne-Cours-sur-Loire"
"Armoy","P",28.23,82,"74",46.3523619359,6.51159949942,"Thonon-les-Bains"
"Arnas","P",46.04,82,"69",46.018642208,4.71055115549,"Villefranche-sur-Saône"
"Arnay-sous-Vitteaux","P",17.959999999999997,26,"21",47.4372947607,4.49901520895,"Montbard"
"Arné","P",17.720000000000002,73,"65",43.1810099467,0.492692454567,"Tarbes"
"Arnos","P",18.33,72,"64",43.4587702004,-0.533290212033,"Orthez"
"Aroz","P",20.28,43,"70",47.6138842426,6.00554228377,"Vesoul"
"Arpenans","P",24.41,43,"70",47.6208422399,6.41263553144,"Lure"
"Arpheuilles-Saint-Priest","P",11.770000000000001,83,"03",46.2269459869,2.66485932203,"Montluçon"
"Arques","P",33.97,31,"62",50.7402216255,2.31902794783,"Saint-Omer"
"Arraincourt","P",17.189999999999998,41,"57",48.9760540573,6.53048540164,"Boulay-Moselle"
"Arras","P",43.87,31,"62",50.2898964997,2.76587316711,"Arras"
"Arre","P",30.400000000000002,91,"30",43.9579987719,3.51894390176,"Vigan (Le)"
"Arrens-Marsous","P",19.700000000000003,73,"65",42.9104049352,-0.260439991296,"Argelès-Gazost"
"Arrentières","P",36.410000000000004,21,"10",48.2679922026,4.73910370169,"Bar-sur-Aube"
"Arrien","P",13.530000000000001,72,"64",43.3128952701,-0.162235527982,"Pau"
"Arromanches-les-Bains","P",19.869999999999997,25,"14",49.3357973304,-0.620617244161,"Bayeux"
"Arrou","P",19.7,24,"28",48.1120067473,1.08598331855,"Châteaudun"
"Arrout","P",28.049999999999997,73,"09",42.9475606635,1.01996413494,"Saint-Girons"
"Ars-en-Ré","P",31.950000000000003,54,"17",46.2111995219,-1.51504354145,"Rochelle (La)"
"Gaillac","P",25.05,73,"81",43.9170968776,1.88647213801,"Gaillac"
"Gaillefontaine","P",20.66,23,"76",49.6566343122,1.62674922737,"Neufchâtel-en-Bray"
"Gaja-et-Villedieu","P",20.85,91,"11",43.079734068,2.18579685129,"Limoux"
"Gajac","P",26.759999999999998,72,"33",44.4363899327,-0.134945962959,"Langon"
"Galan","P",17.720000000000002,73,"65",43.2229884965,0.403470787681,"Tarbes"
"Galgan","P",17.400000000000002,73,"12",44.5034642584,2.17991482623,"Villefranche-de-Rouergue"
"Gallardon","P",30.81,24,"28",48.5338026197,1.68926878076,"Lucé"
"Gambais","P",38.209999999999994,11,"78",48.7796089951,1.67651742335,"Mantes-la-Jolie"
"Ganagobie","P",29.389999999999997,93,"04",44.0025862123,5.90850076129,"Digne-les-Bains"
"Gandelain","P",18.04,25,"61",48.471434104,-0.0863104439985,"Alençon-Argentan"
"Gannay-sur-Loire","P",13.33,83,"03",46.7179070524,3.59634650725,"Moulins"
"Gâprée","P",18.04,25,"61",48.6244819747,0.293642849368,"Alençon-Argentan"
"Garanou","P",28.31,73,"09",42.7646194319,1.74523092663,"Foix"
"Garcelles-Secqueville","P",16.68,25,"14",49.096717576,-0.28075370018,"Falaise"
"Gardefort","P",24.410000000000004,24,"18",47.2604545544,2.82377502838,"Bourges"
"Garencières","P",24.61,23,"27",48.9496964914,1.25678069483,"Evreux"
"Gargas","P",37.96,73,"31",43.7592156641,1.45920963091,"Toulouse Saint-Michel"
"Gargenville","P",54.59,11,"78",48.9931450718,1.81069376214,"Mantes-la-Jolie"
"Garigny","P",24.410000000000004,24,"18",47.0876281649,2.88287839693,"Bourges"
"Garnay","P",30.520000000000003,24,"28",48.6998026129,1.33718579474,"Dreux"
"Garrebourg","P",15.78,41,"57",48.7083515564,7.23712179882,"Sarrebourg"
"Garrosse","P",32.63,72,"40",44.0067597178,-0.944886603255,"Parentis-en-Born"
"Gasques","P",37.0,73,"82",44.1489786487,0.910582677512,"Castelsarrasin"
"Gastes","P",32.63,72,"40",44.3206614614,-1.19398557217,"Parentis-en-Born"
"Gathemo","P",15.36,25,"50",48.7693848928,-0.963982047584,"Avranches"
"Gauchy","P",49.959999999999994,22,"02",49.8234688599,3.28649189661,"Saint-Quentin"
"Gaudiès","P",23.6,73,"09",43.173172647,1.73046105986,"Pamiers"
"Girgols","P",9.879999999999999,83,"15",45.0493144178,2.52185538424,"Aurillac"
"Girolles","P",31.3,26,"89",47.5460602358,3.83633441975,"Avallon"
"Gironville-sur-Essonne","P",41.24,11,"91",48.3663326191,2.34574347653,"Evry"
"Giscaro","P",18.650000000000002,73,"32",43.6065164877,0.93402419559,"Auch"
"Gissac","P",15.04,73,"12",43.868273324,2.90640154939,"Millau"
"Giuncaggio","P",21.18,94,"2B",42.1914716312,9.38364577936,"Corte"
"Giverny","P",29.400000000000006,23,"27",49.0819438915,1.53288773518,"Andelys (Les)"
"Givraines","P",32.64,24,"45",48.1510160951,2.38245438786,"Pithiviers"
"Givrauval","P",21.080000000000002,41,"55",48.6577603039,5.31810746284,"Commercy"
"Givry","P",31.3,26,"89",47.5137032775,3.79475947222,"Avallon"
"Gizia","P",17.94,43,"39",46.5271746657,5.42480617606,"Lons-le-Saunier"
"Glaire","P",20.320000000000004,21,"08",49.7168781678,4.9057121108,"Sedan"
"Gland","P",32.849999999999994,22,"02",49.0579740538,3.45713931457,"Château-Thierry"
"Glanges","P",14.209999999999999,74,"87",45.659742237,1.46090261076,"Limoges"
"Glatigny","P",29.380000000000003,22,"60",49.4954037049,1.90088240357,"Beauvais"
"Glénay","P",18.939999999999998,54,"79",46.856442767,-0.241719789951,"Bressuire"
"Glisy","P",66.53,22,"80",49.8742994501,2.38728459314,"Amiens"
"Glos-la-Ferrière","P",22.82,25,"61",48.8484777896,0.595910350345,"Mortagne-au-Perche"
"Gluiras","P",19.589999999999996,82,"07",44.8455602063,4.52583208054,"Privas"
"Goderville","P",16.82,23,"76",49.6443271273,0.355221850128,"Fécamp"
"Goetzenbruck","P",11.49,41,"57",48.974624573,7.37727669636,"Sarreguemines"
"Goin","P",25.24,41,"57",48.9875798423,6.22300683385,"Metz"
"Frénouville","P",16.68,25,"14",49.132745489,-0.249029686831,"Falaise"
"Fresnay-l'Évêque","P",30.81,24,"28",48.2584598646,1.81447858393,"Lucé"
"Fresnay-le-Gilmert","P",30.81,24,"28",48.5129802184,1.4182025742,"Lucé"
"Fresne-l'Archevêque","P",29.400000000000006,23,"27",49.288073354,1.40975224515,"Andelys (Les)"
"Fresnes","P",27.84,22,"02",49.5548078585,3.37018022508,"Laon"
"Fresnes-au-Mont","P",21.080000000000002,41,"55",48.8991708733,5.43476068255,"Commercy"
"Fresnes-en-Tardenois","P",32.849999999999994,22,"02",49.1427948273,3.54893406985,"Château-Thierry"
"Fresnes-sur-Escaut","P",46.67,31,"59",50.432489562,3.57931049864,"Condé-sur-l'Escaut"
"Fresnicourt-le-Dolmen","P",12.399999999999999,31,"62",50.4248203734,2.60417768475,"Béthune"
"Fresnoy-au-Val","P",32.160000000000004,22,"80",49.8374899033,2.05143739704,"Montdidier"
"Fresnoy-le-Grand","P",21.38,22,"02",49.9540724704,3.41858032499,"Saint-Quentin"
"Fressac","P",30.400000000000002,91,"30",43.9964171524,3.9209656443,"Vigan (Le)"
"Fressancourt","P",27.84,22,"02",49.6284783975,3.42727910427,"Laon"
"Fressies","P",16.839999999999996,31,"59",50.2494910786,3.18888373782,"Cambrai"
"Fretigney-et-Velloreille","P",20.28,43,"70",47.4895779062,5.93793813227,"Vesoul"
"Frettecuisse","P",21.8,22,"80",49.9234423718,1.81014711359,"Abbeville"
"Fretterans","P",21.25,26,"71",46.923240269,5.28789884271,"Louhans"
"Fréville-du-Gâtinais","P",35.489999999999995,24,"45",48.0208335468,2.44856219378,"Montargis"
"Freyssenet","P",19.589999999999996,82,"07",44.6886194228,4.54695114844,"Privas"
"Fribourg","P",15.78,41,"57",48.7700278814,6.87194156304,"Sarrebourg"
"Frichemesnil","P",17.899999999999995,23,"76",49.6203720713,1.13252706678,"Rouen"
"Friesen","P",15.11,42,"68",47.5615367356,7.15172348131,"Altkirch"
"Frocourt","P",33.080000000000005,22,"60",49.3813474009,2.08360584323,"Méru"
"Frohmuhl","P",14.68,42,"67",48.9113095227,7.27923351719,"Saverne"
"Froidfond","P",28.450000000000003,52,"85",46.8789464367,-1.75511438567,"Sables d'Olonne (Les)"
"Frôlois","P",17.959999999999997,26,"21",47.5293434145,4.6477491814,"Montbard"
"Fromelles","P",27.330000000000002,31,"59",50.6109686203,2.85464946616,"Lille"
"Fromezey","P",17.150000000000002,41,"55",49.21113111,5.58213989318,"Verdun"
"Frontenac","P",18.41,73,"46",44.5445619042,1.97060806346,"Figeac"
"Frontenay-Rohan-Rohan","P",18.869999999999997,54,"79",46.2557084922,-0.540123397468,"Niort"
"Frontignan","P",48.58,91,"34",43.4482458873,3.74923522416,"Sète"
"Fronville","P",25.180000000000003,21,"52",48.4008313761,5.13453844457,"Saint-Dizier"
"Ferdrupt","P",19.52,41,"88",47.9111858178,6.71995195157,"Remiremont"
"Ferfay","P",35.760000000000005,31,"62",50.521404257,2.43125603761,"Auchel"
"Férin","P",27.53,31,"59",50.3309978415,3.08128816904,"Douai"
"Férolles-Attilly","P",61.739999999999995,11,"77",48.7335952478,2.63893813128,"Moissy-Cramayel"
"Ferrensac","P",19.59,72,"47",44.6425090951,0.638877238535,"Villeneuve-sur-Lot"
"Ferrière-la-Grande","P",44.010000000000005,31,"59",50.2456386476,3.99089727257,"Maubeuge"
"Ferrière-Larçon","P",20.64,24,"37",46.9960395019,0.874010150834,"Loches"
"Ferrières","P",32.43,22,"60",49.5890936598,2.51315398391,"Clermont"
"Ferrières-Haut-Clocher","P",24.61,23,"27",49.0203824794,0.987492004365,"Evreux"
"Ferrières-lès-Scey","P",20.28,43,"70",47.6601846416,6.00409146195,"Vesoul"
"Ferrussac","P",15.779999999999998,83,"43",45.0855730719,3.40516664941,"Brioude"
"Fescamps","P",32.160000000000004,22,"80",49.6415538079,2.6866324021,"Montdidier"
"Fesmy-le-Sart","P",37.550000000000004,22,"02",50.0482154856,3.69825469199,"Vervins"
"Fessevillers","P",21.02,43,"25",47.2807563461,6.91972627259,"Montbéliard"
"Festubert","P",32.91,31,"62",50.5446581516,2.7365385521,"Béthune"
"Feugarolles","P",24.39,72,"47",44.2178235565,0.360960245348,"Nérac"
"Feuges","P",31.4,21,"10",48.396564153,4.1086742347,"Rosières-près-Troyes"
"Feuillères","P",30.85,22,"80",49.9413358686,2.85151703169,"Péronne"
"Fèves","P",25.24,41,"57",49.1891814065,6.10692735575,"Metz"
"Artemare","P",25.549999999999997,82,"01",45.8695891748,5.69065283943,"Belley"
"Arthenas","P",17.94,43,"39",46.5722801296,5.52869424012,"Lons-le-Saunier"
"Arthezé","P",19.96,52,"72",47.7894345539,-0.110707859557,"Flèche (La)"
"Arthon","P",15.01,24,"36",46.6931304896,1.71130740486,"Châtre (La)"
"Artignosc-sur-Verdon","P",39.22,93,"83",43.6940767712,6.10762159358,"Draguignan"
"Artigues","P",36.36,93,"83",43.576501883,5.80239993371,"Brignoles"
"Artolsheim","P",20.27,42,"67",48.2079373474,7.60004702604,"Sélestat"
"Artonne","P",19.3,83,"63",46.0058522543,3.15012499904,"Riom"
"Arvert","P",31.880000000000003,54,"17",45.7467177587,-1.12303418678,"Rochefort"
"Arville","P",29.14,11,"77",48.1812755865,2.55657978,"Fontainebleau"
"Arzano","P",18.22,53,"29",47.8927527459,-3.44326646496,"Quimperlé"
"Arzon","P",24.89,53,"56",47.5470278592,-2.88784873321,"Vannes"
"Aschbach","P",10.290000000000001,42,"67",48.9421865958,7.98028356812,"Wissembourg"
"Asco","P",21.18,94,"2B",42.4346334244,8.99704854725,"Corte"
"Aslonnes","P",16.699999999999996,54,"86",46.4452071575,0.33420632298,"Poitiers"
"Asnières-en-Poitou","P",18.869999999999997,54,"79",46.0894554355,-0.211290133628,"Niort"
"Asnières-sur-Nouère","P",16.93,54,"16",45.7078415562,0.0487826997236,"Angoulême"
"Asnières-sur-Saône","P",21.809999999999995,82,"01",46.3857281418,4.88387478623,"Bourg-en-Bresse"
"Aspach","P",15.78,41,"57",48.6526727598,6.9670213438,"Sarrebourg"
"Aspin-Aure","P",20.43,73,"65",42.936099418,0.327349916156,"Bagnères-de-Bigorre"
"Aspres-lès-Corps","P",21.53,93,"05",44.8128831432,6.00076834757,"Gap"
"Asquins","P",31.3,26,"89",47.4878050152,3.74721603984,"Avallon"
"Assat","P",13.530000000000001,72,"64",43.2575933228,-0.288463640719,"Pau"
"Assé-le-Bérenger","P",16.25,52,"53",48.155873836,-0.318587508951,"Laval"
"Assenoncourt","P",15.78,41,"57",48.7664604694,6.79955530067,"Sarrebourg"
"Assigny","P",13.1,23,"76",49.9827883688,1.28759631954,"Dieppe"
"Astaillac","P",14.059999999999999,74,"19",44.9515500002,1.83033967926,"Brive-la-Gaillarde"
"Aste-Béon","P",16.16,72,"64",43.0305496433,-0.397677517551,"Oloron-Sainte-Marie"
"Astugue","P",20.43,73,"65",43.0973955816,0.072326458171,"Bagnères-de-Bigorre"
"Athienville","P",21.240000000000002,41,"54",48.7174707236,6.48605238169,"Lunéville"
"Athis-de-l'Orne","P",15.580000000000002,25,"61",48.7951982952,-0.509617196105,"Domfront"
"Athos-Aspis","P",18.33,72,"64",43.4126325632,-0.964931757196,"Orthez"
"Authon","P",35.86,93,"04",44.2492545518,6.15102271049,"Forcalquier"
"Authume","P",24.46,43,"39",47.1250671722,5.50826789113,"Dole"
"Autigny-la-Tour","P",28.84,41,"88",48.4150811595,5.78035222598,"Neufchâteau"
"Autigny-le-Petit","P",25.180000000000003,21,"52",48.4816592371,5.15235006309,"Saint-Dizier"
"Autrac","P",15.779999999999998,83,"43",45.3367716906,3.12941961398,"Brioude"
"Autremencourt","P",27.84,22,"02",49.7051244442,3.79419867292,"Laon"
"Autreville","P",28.84,41,"88",48.4900920447,5.85837068371,"Neufchâteau"
"Autreville-sur-la-Renne","P",14.799999999999999,21,"52",48.1258481479,4.97740367937,"Chaumont"
"Autrey-lès-Cerre","P",20.28,43,"70",47.6127923276,6.34600936361,"Vesoul"
"Autun","P",21.36,26,"71",46.945536773,4.31060069532,"Autun"
"Auvers","P",15.779999999999998,83,"43",44.9966929064,3.39158114274,"Brioude"
"Auvers-le-Hamon","P",19.96,52,"72",47.903917058,-0.345078374369,"Flèche (La)"
"Auvet-et-la-Chapelotte","P",20.28,43,"70",47.5070865924,5.52591428297,"Vesoul"
"Aux Marais","P",29.380000000000003,22,"60",49.4073687683,2.04083080438,"Beauvais"
"Auxelles-Bas","P",19.55,43,"90",47.7286757608,6.78389507054,"Belfort"
"Auxon-Dessous","P",25.520000000000003,43,"25",47.2989251544,5.94068380639,"Besançon"
"Auzainvilliers","P",28.84,41,"88",48.2367790067,5.8528751887,"Neufchâteau"
"Auzas","P",25.51,73,"31",43.1744807427,0.894158891084,"Saint-Gaudens"
"Auzelles","P",13.85,83,"63",45.6068543824,3.51902613907,"Ambert"
"Auzouer-en-Touraine","P",25.7,24,"37",47.55445629,0.93712101113,"Amboise"
"Availles-en-Châtellerault","P",15.8,54,"86",46.7561922634,0.569776256918,"Châtellerault"
"Availles-sur-Seiche","P",18.12,53,"35",47.9580414935,-1.1853971789,"Vitré"
"Avançon","P",22.490000000000002,21,"08",49.4808582492,4.25135015983,"Rethel"
"Avaux","P",22.490000000000002,21,"08",49.4659424316,4.06887306041,"Rethel"
"Avelin","P",27.53,31,"59",50.5397882047,3.08608433822,"Douai"
"Avensan","P",32.64,72,"33",45.005403307,-0.760815427452,"Lesparre-Médoc"
"Avermes","P",26.36,83,"03",46.5983891991,3.3186329397,"Moulins"
"Avernes-Saint-Gourgon","P",18.04,25,"61",48.9370401429,0.31350420868,"Alençon-Argentan"
"Avesnes","P",19.16,31,"62",50.5516543223,1.96214874129,"Ecuires"
"Avesnes-lès-Bapaume","P",18.33,31,"62",50.1049859352,2.83305700978,"Arras"
"Avezac-Prat-Lahitte","P",20.43,73,"65",43.0649077619,0.3352681161,"Bagnères-de-Bigorre"
"Avezé","P",19.92,52,"72",48.2343214233,0.672495766191,"Mamers"
"Avignon-lès-Saint-Claude","P",15.47,43,"39",46.4011757711,5.84079043463,"Saint-Claude"
"Avilly-Saint-Léonard","P",46.8,22,"60",49.1839157473,2.52767735366,"Senlis"
"Aviron","P",24.61,23,"27",49.0566321831,1.12002720385,"Evreux"
"Avocourt","P",17.150000000000002,41,"55",49.2032158089,5.14229694314,"Verdun"
"Avon","P",43.83,11,"77",48.4129699101,2.73351873997,"Fontainebleau"
"Avot","P",17.409999999999997,26,"21",47.6170677584,5.00757406973,"Is-sur-Tille"
"Avranches","P",15.36,25,"50",48.6884746717,-1.35732338245,"Avranches"
"Avreuil","P",31.4,21,"10",48.0531394763,3.99802844236,"Rosières-près-Troyes"
"Avrigney-Virey","P",20.28,43,"70",47.3393039112,5.77571250318,"Vesoul"
"Avril","P",25.73,41,"54",49.2941688536,5.96776937418,"Briey"
"Avrilly","P",15.879999999999999,83,"03",46.332137774,3.96662161873,"Vichy"
"Ax-les-Thermes","P",28.31,73,"09",42.6873576342,1.81825994194,"Foix"
"Ayat-sur-Sioule","P",19.3,83,"63",46.0615532638,2.88700603569,"Riom"
"Aydie","P",13.530000000000001,72,"64",43.5707613227,-0.113447741678,"Pau"
"Ayette","P",18.33,31,"62",50.1699222305,2.73263282673,"Arras"
"Aynac","P",18.41,73,"46",44.7879676429,1.85677368836,"Figeac"
"Ayssènes","P",15.04,73,"12",44.092111179,2.76570045651,"Millau"
"Ayzieu","P",23.36,73,"32",43.8583294171,-0.0256162050251,"Condom"
"Azay-le-Brûlé","P",18.869999999999997,54,"79",46.4045197367,-0.267456920636,"Niort"
"Azé","P",20.209999999999997,52,"53",47.8288251994,-0.657885317512,"Château-Gontier"
"Azerat","P",19.78,72,"24",45.1597230552,1.10636160477,"Périgueux"
"Azilone-Ampaza","P",21.74,94,"2A",41.8704409452,9.01683572798,"Sartène"
"Azy","P",24.410000000000004,24,"18",47.1920688038,2.71043899045,"Bourges"
"Azy-sur-Marne","P",32.849999999999994,22,"02",49.0039701095,3.35913214045,"Château-Thierry"
"Baboeuf","P",45.99,22,"60",49.5820096557,3.09130594062,"Compiègne"
"Bachivillers","P",33.080000000000005,22,"60",49.2869210002,1.96825665241,"Méru"
"Bacouël","P",29.380000000000003,22,"60",49.6218428027,2.38266948973,"Beauvais"
"Bacourt","P",15.78,41,"57",48.92859453,6.40632103762,"Sarrebourg"
"Badaroux","P",15.629999999999999,91,"48",44.5399034165,3.55404283598,"Mende"
"Badinières","P",33.57,82,"38",45.5117725292,5.29960540554,"Bourgoin-Jallieu"
"Baerenthal","P",11.49,41,"57",48.967824812,7.52245388571,"Sarreguemines"
"Bagert","P",28.049999999999997,73,"09",43.07935173,1.07008338409,"Saint-Girons"
"Bagneaux","P",36.32,26,"89",48.2544532478,3.59222346559,"Sens"
"Bagnères-de-Bigorre","P",20.43,73,"65",42.9758668859,0.132640694318,"Bagnères-de-Bigorre"
"Augignac","P",17.25,72,"24",45.5838223647,0.702320065534,"Nontron"
"Augne","P",14.209999999999999,74,"87",45.7719200606,1.70058013967,"Limoges"
"Charmoy","P",21.36,26,"71",46.7692538445,4.31625377039,"Autun"
"Charnay","P",21.67,82,"69",45.891187551,4.66063186811,"Villefranche-sur-Saône"
"Charnoz-sur-Ain","P",30.450000000000003,82,"01",45.8736786869,5.2211032563,"Trévoux"
"Charny-sur-Meuse","P",17.150000000000002,41,"55",49.203830142,5.3418897321,"Verdun"
"Charols","P",33.14,82,"26",44.5895894991,4.95411000129,"Die"
"Charpont","P",30.520000000000003,24,"28",48.6958429169,1.43243894312,"Dreux"
"Charrecey","P",19.060000000000002,26,"71",46.8363564868,4.66839372197,"Chalon-sur-Saône"
"Charron","P",31.950000000000003,54,"17",46.2936903771,-1.08092039856,"Rochelle (La)"
"Chartèves","P",32.849999999999994,22,"02",49.0898127369,3.50871838479,"Château-Thierry"
"Chartrier-Ferrière","P",14.059999999999999,74,"19",45.0582166872,1.4341213591,"Brive-la-Gaillarde"
"Chartuzac","P",29.24,54,"17",45.3371917387,-0.416732007642,"Jonzac"
"Chasnais","P",21.259999999999998,52,"85",46.4459908481,-1.2385924923,"Fontenay-le-Comte"
"Chassagne-Montrachet","P",24.460000000000004,26,"21",46.9323632752,4.72732420216,"Beaune"
"Chassal","P",15.47,43,"39",46.3600964475,5.7849059894,"Saint-Claude"
"Chassé","P",19.92,52,"72",48.4519043698,0.206937524365,"Mamers"
"Chasselay","P",42.050000000000004,82,"69",45.8749558525,4.7708529699,"Lyon"
"Chassey","P",17.959999999999997,26,"21",47.4742431505,4.44465203399,"Montbard"
"Chassiecq","P",20.81,54,"16",45.9509527297,0.368543478454,"Confolens"
"Chassieu","P",68.13,82,"69",45.7376148968,4.96172914286,"Lyon"
"Chassigny","P",25.62,21,"52",47.7183172965,5.38247891273,"Langres"
"Champrepus","P",15.36,25,"50",48.8340009078,-1.31607889446,"Avranches"
"Champs","P",27.84,22,"02",49.5434967943,3.2618311238,"Laon"
"Champsac","P",12.220000000000002,74,"87",45.7039235898,0.962300272807,"Saint-Junien / Rochechouart"
"Champtercier","P",29.389999999999997,93,"04",44.096935134,6.14456451427,"Digne-les-Bains"
"Champvans","P",20.28,43,"70",47.3966029072,5.5921235219,"Vesoul"
"Chamrousse","P",43.5,82,"38",45.1197427134,5.89438297795,"Meylan"
"Chanac","P",15.629999999999999,91,"48",44.4502200567,3.34457977647,"Mende"
"Chanay","P",25.549999999999997,82,"01",46.005695299,5.76893393185,"Belley"
"Chancelade","P",40.089999999999996,72,"24",45.2100121087,0.655273444534,"Périgueux"
"Chandolas","P",26.229999999999997,82,"07",44.4136372398,4.24331144158,"Largentière"
"Chanéac","P",22.980000000000004,82,"07",44.9300424452,4.30692688194,"Tournon-sur-Rhône"
"Changé","P",21.94,52,"72",47.9784374731,0.297080685865,"Mans (Le)"
"Chaniers","P",28.32,54,"17",45.7339723464,-0.551943475215,"Saintes"
"Chanos-Curson","P",35.3,82,"26",45.0572285587,4.91832006545,"Romans-sur-Isère"
"Chanteheux","P",48.87,41,"54",48.5935603101,6.53792470418,"Lunéville"
"Chanteloup","P",12.620000000000001,25,"50",48.8929574359,-1.4825906848,"Coutances"
"Chanteloup-en-Brie","P",51.540000000000006,11,"77",48.8577766033,2.74039391563,"Lagny-sur-Marne"
"Chantemerle-les-Blés","P",35.3,82,"26",45.1232050838,4.88926895841,"Romans-sur-Isère"
"Chanteraine","P",21.080000000000002,41,"55",48.6785463151,5.39088582965,"Commercy"
"Chantillac","P",22.45,54,"16",45.3264411162,-0.255453791343,"Cognac"
"Chantraine","P",50.51,41,"88",48.1667597776,6.41955760454,"Épinal"
"Chanville","P",25.24,41,"57",49.0421866813,6.43895041652,"Metz"
"Chapareillan","P",43.5,82,"38",45.461591172,5.95800759236,"Meylan"
"Chapelaine","P",39.35,21,"51",48.5795561262,4.48064081068,"Vitry-le-François"
"Chapelle-des-Bois","P",15.9,43,"25",46.606672007,6.10775555362,"Pontarlier"
"Chapelle-Viviers","P",12.24,54,"86",46.4694872562,0.730976969783,"Montmorillon"
"Chappes","P",11.770000000000001,83,"03",46.3828961665,2.94412358895,"Montluçon"
"Chaptuzat","P",19.3,83,"63",46.0302322013,3.17010831836,"Riom"
"Charbonnières","P",20.93,24,"28",48.1895067201,0.944303356548,"Nogent-le-Rotrou"
"Charbonnières-les-Vieilles","P",19.3,83,"63",45.9916492196,3.00764883452,"Riom"
"Charcé-Saint-Ellier-sur-Aubance","P",22.850000000000005,52,"49",47.3522114874,-0.403200268067,"Angers"
"Chard","P",14.680000000000001,74,"23",45.9497905818,2.49042284928,"Aubusson"
"Champfleur","P",19.92,52,"72",48.3844669298,0.125303372626,"Mamers"
"Champfromier","P",32.47,82,"01",46.220365768,5.82233573131,"Gex"
"Champignelles","P",26.180000000000003,26,"89",47.7800283506,3.07775894136,"Auxerre"
"Champigneulles-en-Bassigny","P",14.799999999999999,21,"52",48.1287336984,5.62935287629,"Chaumont"
"Champignolles","P",24.460000000000004,26,"21",47.0511019463,4.56775348817,"Beaune"
"Champigny-la-Futelaye","P",24.61,23,"27",48.8696186987,1.30067720632,"Evreux"
"Champillet","P",15.01,24,"36",46.5468094689,2.10739016471,"Châtre (La)"
"Champlay","P",36.32,26,"89",47.9466983822,3.42023668586,"Sens"
"Champlemy","P",26.35,26,"58",47.2852072744,3.33527169936,"Cosne-Cours-sur-Loire"
"Champlost","P",26.180000000000003,26,"89",48.04194277,3.65112821116,"Auxerre"
"Champniers-et-Reilhac","P",17.25,72,"24",45.6717236599,0.721225907489,"Nontron"
"Champoulet","P",29.189999999999998,24,"45",47.6510461411,2.9231554998,"Gien"
"Avondance","P",19.16,31,"62",50.4792838147,2.10125197413,"Ecuires"
"Avosnes","P",17.959999999999997,26,"21",47.3684679996,4.63263397614,"Montbard"
"Avrainville","P",43.68999999999999,11,"91",48.5576520151,2.24428910412,"Palaiseau"
"Avressieux","P",34.489999999999995,82,"73",45.5713044928,5.69389635857,"Chambéry"
"Avrieux","P",28.859999999999996,82,"73",45.1781016318,6.74676532189,"Saint-Jean-de-Maurienne"
"Avrigny","P",32.43,22,"60",49.3890770811,2.57702799562,"Clermont"
"Avrillé-les-Ponceaux","P",26.939999999999998,24,"37",47.388268784,0.302971878104,"Tours"
"Awoingt","P",16.839999999999996,31,"59",50.153637436,3.28601914646,"Cambrai"
"Ay-sur-Moselle","P",25.24,41,"57",49.2475802944,6.19571589281,"Metz"
"Ayencourt","P",32.160000000000004,22,"80",49.6264865136,2.55113103063,"Montdidier"
"Ayguetinte","P",23.36,73,"32",43.8324278378,0.418923178256,"Condom"
"Ayn","P",34.489999999999995,82,"73",45.5715140758,5.74945889695,"Chambéry"
"Ayse","P",36.13999999999999,82,"74",46.0869924496,6.44601645014,"Bonneville"
"Azat-le-Ris","P",16.080000000000002,74,"87",46.3077799359,1.05737198508,"Bellac"
"Azay-sur-Indre","P",20.64,24,"37",47.2038896853,0.943284326846,"Loches"
"Azé","P",16.57,24,"41",47.8570277979,0.997062059366,"Vendôme"
"Azerailles","P",21.240000000000002,41,"54",48.4972745986,6.6948706717,"Lunéville"
"Azille","P",24.24,91,"11",43.2737058086,2.65746942689,"Carcassonne"
"Azur","P",34.44,72,"40",43.798488604,-1.29632205852,"Dax"
"Azy-le-Vif","P",21.840000000000003,26,"58",46.7880140939,3.22978809356,"Nevers"
"Babeau-Bouldoux","P",34.53,91,"34",43.4382106135,2.89298078323,"Béziers"
"Bachas","P",25.51,73,"31",43.2487475475,0.941734227527,"Saint-Gaudens"
"Baconnes","P",32.91,21,"51",49.1643635921,4.33841654965,"Châlons-en-Champagne"
"Badailhac","P",9.879999999999999,83,"15",44.9142134347,2.62817849396,"Aurillac"
"Baden","P",24.89,53,"56",47.614993273,-2.90383771516,"Vannes"
"Badevel","P",21.02,43,"25",47.5014450746,6.93860867226,"Montbéliard"
"Baerendorf","P",14.68,42,"67",48.8306192171,7.08989424787,"Saverne"
"Bâgé-le-Châtel","P",21.809999999999995,82,"01",46.3077069231,4.92862084189,"Bourg-en-Bresse"
"Bagnac-sur-Célé","P",18.41,73,"46",44.6622315963,2.14887166878,"Figeac"
"Bagneaux-sur-Loing","P",39.519999999999996,11,"77",48.2233131664,2.70750970158,"Nemours"
"Bagneux","P",22.15,24,"36",47.1677532735,1.75606280452,"Issoudun"
"Bagnoles-de-l'Orne","P",15.580000000000002,25,"61",48.5556585202,-0.419510749596,"Domfront"
"Autouillet","P",33.65,11,"78",48.8439307646,1.79700207496,"Rambouillet"
"Autrécourt-sur-Aire","P",21.080000000000002,41,"55",49.031056488,5.13983417646,"Commercy"
"Autreville","P",27.84,22,"02",49.5860875305,3.23602708427,"Laon"
"Autrey-le-Vay","P",24.41,43,"70",47.5364102911,6.39638774962,"Lure"
"Talazac","P",17.720000000000002,73,"65",43.3342840796,0.0373399435018,"Tarbes"
"Talensac","P",17.09,53,"35",48.0906335682,-1.92552544674,"Montfort-sur-Meu"
"Taller","P",34.44,72,"40",43.8849394587,-1.06224013278,"Dax"
"Talmay","P",17.409999999999997,26,"21",47.3663925379,5.46063337832,"Is-sur-Tille"
"Talmont-sur-Gironde","P",28.32,54,"17",45.54345601,-0.901968620389,"Saintes"
"Tamerville","P",11.070000000000002,25,"50",49.5419972354,-1.46098146273,"Cherbourg-Octeville"
"Tancon","P",15.540000000000001,26,"71",46.2007159715,4.27045776133,"Charolles"
"Tanis","P",15.36,25,"50",48.5847136068,-1.44326167489,"Avranches"
"Tannay","P",21.57,21,"08",49.5244351516,4.82484959766,"Vouziers"
"Tannois","P",21.080000000000002,41,"55",48.7133377728,5.22030723215,"Commercy"
"Taponnat-Fleurignac","P",16.93,54,"16",45.7739607246,0.417726239972,"Angoulême"
"Tarascon-sur-Ariège","P",28.31,73,"09",42.8461514685,1.59648461871,"Foix"
"Tarentaise","P",22.009999999999998,82,"42",45.3612036739,4.49235219509,"Saint-Etienne"
"Tarnac","P",13.33,74,"19",45.6728907622,1.95565232605,"Ussel"
"Tarnos","P",34.44,72,"40",43.5367457997,-1.4653189934,"Dax"
"Tarsacq","P",16.16,72,"64",43.3557575881,-0.531704585094,"Oloron-Sainte-Marie"
"Tartécourt","P",20.28,43,"70",47.8399254984,5.97669885968,"Vesoul"
"Tasque","P",12.51,73,"32",43.6375200891,0.0112451913592,"Mirande"
"Tassenières","P",24.46,43,"39",46.9232742265,5.51257337685,"Dole"
"Taugon","P",31.950000000000003,54,"17",46.3172452775,-0.831865741628,"Rochelle (La)"
"Tauriac-de-Camarès","P",15.04,73,"12",43.7765492565,3.03077499172,"Millau"
"Taurinya","P",34.37,91,"66",42.5592864302,2.44208129657,"Prades"
"Taussac","P",9.94,73,"12",44.8248753514,2.63587650055,"Rodez"
"Tauxigny","P",20.64,24,"37",47.2077298094,0.829508341853,"Loches"
"Tavernay","P",21.36,26,"71",47.0078509175,4.23537137971,"Autun"
"Taxat-Senat","P",15.879999999999999,83,"03",46.207728501,3.14578508085,"Vichy"
"Têche","P",33.06,82,"38",45.1776772771,5.37590743872,"Saint-Marcellin"
"Teilhet","P",19.3,83,"63",46.1023710126,2.81638595115,"Riom"
"Teillé","P",28.480000000000004,52,"44",47.4641557957,-1.28707085178,"Ancenis"
"Teissières-de-Cornet","P",9.879999999999999,83,"15",44.9756690067,2.36199545657,"Aurillac"
"Temple-Laguyon","P",19.78,72,"24",45.231240965,1.09729455909,"Périgueux"
"Tenay","P",25.549999999999997,82,"01",45.922698278,5.51453923595,"Belley"
"Tencin","P",43.5,82,"38",45.3111766526,5.95861963639,"Meylan"
"Teneur","P",16.729999999999997,31,"62",50.4521719287,2.22043017933,"Saint-Pol-sur-Ternoise"
"Tergnier","P",23.65,22,"02",49.6572646109,3.29924077478,"Tergnier - La Fère"
"Termes-d'Armagnac","P",12.51,73,"32",43.6736657601,-0.0144861541884,"Mirande"
"Ternant-les-Eaux","P",18.82,83,"63",45.4812539874,3.12762758694,"Issoire"
"Ternay","P",15.8,54,"86",47.0351786527,-0.0534363312967,"Châtellerault"
"Terny-Sorny","P",24.39,22,"02",49.4472096599,3.36942791187,"Soissons"
"Terre-Clapier","P",13.15,73,"81",43.8488063014,2.3011276294,"Albi"
"Terrou","P",18.41,73,"46",44.7824469874,1.97624209767,"Figeac"
"Terville","P",42.06999999999999,41,"57",49.3465483422,6.13220160083,"Thionville"
"Tessé-Froulay","P",15.580000000000002,25,"61",48.5310517444,-0.428931253176,"Domfront"
"Tétaigne","P",20.320000000000004,21,"08",49.6494350396,5.11700090478,"Sedan"
"Teurthéville-Bocage","P",11.070000000000002,25,"50",49.592445598,-1.39477640051,"Cherbourg-Octeville"
"Teyssieu","P",18.41,73,"46",44.9167422017,1.95733992168,"Figeac"
"Thaas","P",39.35,21,"51",48.6389793802,3.87152616864,"Vitry-le-François"
"Thal-Marmoutier","P",14.68,42,"67",48.6960773859,7.34056735881,"Saverne"
"Tharaux","P",32.11,91,"30",44.2419428616,4.32299911725,"Alès"
"Thauvenay","P",24.410000000000004,24,"18",47.3006910629,2.87323352744,"Bourges"
"Theil-sur-Vanne","P",36.32,26,"89",48.163480288,3.43929036088,"Sens"
"Thel","P",21.67,82,"69",46.1152508824,4.3729863015,"Villefranche-sur-Saône"
"Thélis-la-Combe","P",22.009999999999998,82,"42",45.3361183193,4.54730534012,"Saint-Etienne"
"Thémines","P",18.41,73,"46",44.736284304,1.82100865888,"Figeac"
"Thenelles","P",21.38,22,"02",49.8314948078,3.45894075748,"Saint-Quentin"
"Thénioux","P",25.499999999999996,24,"18",47.2616443934,1.93927302127,"Vierzon"
"Thénisy","P",32.78,11,"77",48.4916945564,3.17799318925,"Provins"
"Théoule-sur-Mer","P",48.37,93,"06",43.4985345439,6.92965248383,"Cannes"
"Thervay","P",24.46,43,"39",47.2404016854,5.609254394,"Dole"
"Theuville","P",30.81,24,"28",48.3326223196,1.59154245059,"Lucé"
"Thevet-Saint-Julien","P",15.01,24,"36",46.6344948494,2.06994108021,"Châtre (La)"
"Theys","P",43.5,82,"38",45.2975465976,6.01339575189,"Meylan"
"Thèze","P",13.530000000000001,72,"64",43.4749565308,-0.344667086414,"Pau"
"Thiais","P",60.56,11,"94",48.7607841928,2.38537729524,"L' Haÿ-les-Roses"
"Thiberville","P",26.09,23,"27",49.1322455831,0.440825641328,"Bernay"
"Thiébauménil","P",21.240000000000002,41,"54",48.5791590332,6.62983158835,"Lunéville"
"Thiébouhans","P",21.02,43,"25",47.2711359611,6.8433767391,"Montbéliard"
"Thiembronne","P",12.52,31,"62",50.6239861501,2.04691534962,"Saint-Omer"
"Thiers-sur-Thève","P",51.18,22,"60",49.1536648574,2.57819751248,"Chantilly"
"Thiétreville","P",16.82,23,"76",49.7197053682,0.518166306169,"Fécamp"
"Thieulloy-la-Ville","P",32.160000000000004,22,"80",49.7433577525,1.9296286879,"Montdidier"
"Thièvres","P",18.33,31,"62",50.1320744532,2.44789711987,"Arras"
"Thil","P",34.58,21,"51",49.3181688565,3.96508523039,"Reims"
"Thilleux","P",25.180000000000003,21,"52",48.4342468946,4.79056251456,"Saint-Dizier"
"Thimory","P",35.489999999999995,24,"45",47.9255273898,2.59448373377,"Montargis"
"Thiouville","P",15.52,23,"76",49.6878940847,0.627618388941,"Yvetot"
"Thiré","P",21.259999999999998,52,"85",46.5433098199,-1.00699777534,"Fontenay-le-Comte"
"Thivencelle","P",46.67,31,"59",50.4459598369,3.62768756311,"Condé-sur-l'Escaut"
"Thizay","P",22.73,24,"37",47.1642216869,0.141915191024,"Chinon"
"Thoigné","P",19.92,52,"72",48.2851988813,0.250186351944,"Mamers"
"Thoiré-sur-Dinan","P",19.96,52,"72",47.7646608356,0.462066578914,"Flèche (La)"
"Thoiry","P",34.489999999999995,82,"73",45.598757543,6.04432776786,"Chambéry"
"Thol-lès-Millières","P",14.799999999999999,21,"52",48.1470755546,5.47884380766,"Chaumont"
"Thomirey","P",24.460000000000004,26,"21",47.0875870318,4.58687586309,"Beaune"
"Thônes","P",30.32,82,"74",45.8852613668,6.31953220709,"Annecy"
"Thonne-les-Près","P",17.150000000000002,41,"55",49.5321707367,5.34285786422,"Verdun"
"Thorame-Haute","P",36.629999999999995,93,"04",44.0855014984,6.60128741508,"Castellane"
"Thorey","P",31.3,26,"89",47.8996209486,4.11461177122,"Avallon"
"Thorigné-en-Charnie","P",16.25,52,"53",48.005707604,-0.359572558274,"Laval"
"Thorigny-sur-Marne","P",51.540000000000006,11,"77",48.8918979999,2.7123703432,"Lagny-sur-Marne"
"Thorrenc","P",22.980000000000004,82,"07",45.2336802249,4.75948467595,"Tournon-sur-Rhône"
"Thoste","P",17.959999999999997,26,"21",47.4356430005,4.22726106818,"Montbard"
"Thouars-sur-Garonne","P",24.39,72,"47",44.2534794236,0.330942072097,"Nérac"
"Thoury","P",26.529999999999998,24,"41",47.6144182456,1.61074783397,"Blois"
"Thoux","P",18.650000000000002,73,"32",43.6822691836,0.992043234795,"Auch"
"Thuilley-aux-Groseilles","P",23.21,41,"54",48.5757760081,5.97219994844,"Toul"
"Thun-l'Évêque","P",16.839999999999996,31,"59",50.2257650605,3.28109704734,"Cambrai"
"Thuret","P",19.3,83,"63",45.9738532514,3.26184697421,"Riom"
"Thury-Harcourt","P",16.68,25,"14",48.9864514562,-0.485109067102,"Falaise"
